code_comptable,code_postal,address,lat,lon,wilaya,wilaya_name,rang,code,name,superficie
1101,1016.0, ADRAR KSAR ADGHA,29.2629508972168,-0.222039997577667,1,Adrar,2,1,Adrar,242942
1109,1002.0,CITE 140 LOGTS ADRAR DJADIDA,27.8928928375244,-0.304791986942291,1,Adrar,2,1,Adrar,242942
1305,1007.0,DAIRA ZT KOUNTA,27.229061126709,-0.150742992758751,1,Adrar,2,1,Adrar,242942
1211,1023.0,APC BOUDA EL MANSOUR,27.9554252624512,-0.424751996994019,1,Adrar,2,1,Adrar,242942
1213,1021.0,KSAR BOUFADI,27.7191104888916,-0.271566987037659,1,Adrar,2,1,Adrar,242942
1110,1057.0,KSAR BOUDA LAGMARA,28.0279731750488,-0.460485488176346,1,Adrar,2,1,Adrar,242942
1212,1030.0,KSAR MLOUKA,27.87619972229,-0.34145399928093,1,Adrar,2,1,Adrar,242942
1203,1028.0,APC TAMEST,27.4083938598633,-0.181930005550385,1,Adrar,2,1,Adrar,242942
1208,1026.0,APC BOUDA BEN DRAOU,28.0100059509277,-0.426800012588501,1,Adrar,2,1,Adrar,242942
1313,1045.0,KSAR INZAGLOUF,26.8194236755371,-0.0308720003813505,1,Adrar,2,1,Adrar,242942
1319,1076.0,KSAR  INZAGMIR,27.110481262207,0.122432999312878,1,Adrar,2,1,Adrar,242942
1111,1063.0,UNIVERSITE  ADRAR,27.8907413482666,-0.284996002912521,1,Adrar,2,1,Adrar,242942
1310,1048.0,KSAR TIMADANINE,26.7107009887695,-0.121871002018452,1,Adrar,2,1,Adrar,242942
1207,1022.0,APC SBAA,28.2108955383301,-0.469969987869263,1,Adrar,2,1,Adrar,242942
1112,1064.0,CITE UNIVERSITE TILLILANE,27.9809875488281,-0.286547005176544,1,Adrar,2,1,Adrar,242942
1102,1062.0,HAI 200LOGTS ADRAR,27.8662700653076,-0.282842010259628,1,Adrar,2,1,Adrar,242942
1308,1056.0,KSAR EL BERRICH,26.8708343505859,-0.0031439999584108,1,Adrar,2,1,Adrar,242942
1301,1017.0,KSAR BAHOU,26.8623161315918,-0.0071299998089671,1,Adrar,2,1,Adrar,242942
1202,1027.0,KSAR OUDGHA,27.6557445526123,-0.31105700135231,1,Adrar,2,1,Adrar,242942
1306,1040.0,KSAR BOUALI,27.1599521636963,-0.131987005472183,1,Adrar,2,1,Adrar,242942
1206,1011.0,DAIRA TSABIT,28.3080387115479,-0.240628004074097,1,Adrar,2,1,Adrar,242942
1300,1004.0, DAIRA REGGANE CENTRE,26.7174892425537,-0.193939000368118,1,Adrar,2,1,Adrar,242942
1303,1009.0,APC SALI,26.9612522125244,-0.0251550003886223,1,Adrar,2,1,Adrar,242942
2419,2059.0,OULED FETTI,36.1110000610352,1.06289994716644,2,Chlef,41,2,Chlef,4077
2410,2074.0,OULED BERRADJAH,36.1525993347168,1.00279998779297,2,Chlef,41,2,Chlef,4077
2202,2034.0,BIR SAF SAF,36.2048988342285,1.59270000457764,2,Chlef,41,2,Chlef,4077
2404,2083.0,BORDJ BAAL,36.2778015136719,0.845399975776672,2,Chlef,41,2,Chlef,4077
2316,2065.0,TALASSA,36.4266014099121,1.09080004692078,2,Chlef,41,2,Chlef,4077
2204,2053.0,PETIT BARRAGE,36.089298248291,1.59150004386902,2,Chlef,41,2,Chlef,4077
2215,2055.0,CAPER,36.1617012023926,1.17789995670319,2,Chlef,41,2,Chlef,4077
2502,2047.0,KECHACHDA,36.3545989990234,1.26859998703003,2,Chlef,41,2,Chlef,4077
2326,2093.0,HAI EL FELLAGUIA,36.3395004272461,1.40209996700287,2,Chlef,41,2,Chlef,4077
2220,2077.0,OULED BOUALI,36.2092018127441,1.4536999464035,2,Chlef,41,2,Chlef,4077
2207,2031.0,HARCHOUN,36.111499786377,1.50510001182556,2,Chlef,41,2,Chlef,4077
2403,2069.0,BENI OUAZENE,35.9870986938477,1.31429994106293,2,Chlef,41,2,Chlef,4077
2302,2060.0,MOUSSADEK,36.3543014526367,1.00849997997284,2,Chlef,41,2,Chlef,4077
2203,2020.0,CHETTIA VSA,36.1864013671875,1.25020003318787,2,Chlef,41,2,Chlef,4077
2406,2028.0,EL-ATMANIA,36.0185012817383,1.16149997711182,2,Chlef,41,2,Chlef,4077
2429,2096.0,"LOCALITE D'AIN SERAGUE,HERENFA",36.2436981201172,1.05659997463226,2,Chlef,41,2,Chlef,4077
2428,2095.0,"CENTRE VILLE D'AIN MERANE,CHLEF",36.1633987426758,0.981100022792816,2,Chlef,41,2,Chlef,4077
2321,2081.0,KAHLOUL,36.4203987121582,1.2360999584198,2,Chlef,41,2,Chlef,4077
2303,2039.0,BENAIRIA,36.3550987243652,1.37580001354218,2,Chlef,41,2,Chlef,4077
2307,2070.0,BREIRA,36.4490013122559,1.61539995670319,2,Chlef,41,2,Chlef,4077
2110,2022.0,ZONE 3,36.1369018554688,1.30490005016327,2,Chlef,41,2,Chlef,4077
2117,2016.0,ZONE 2,36.1549987792969,1.35239994525909,2,Chlef,41,2,Chlef,4077
2115,2057.0,HAY CHEGGA,36.1920013427734,1.34669995307922,2,Chlef,41,2,Chlef,4077
2123,2098.0,RN N°04,36.1558532714844,1.30460274219513,2,Chlef,41,2,Chlef,4077
2430,2097.0,DHARIDJ,36.0853538513184,1.23935604095459,2,Chlef,41,2,Chlef,4077
2418,2054.0,ZEMOURA,35.9567985534668,1.24860000610352,2,Chlef,41,2,Chlef,4077
2320,2061.0,OUED GOUSSINE,36.5247993469238,1.49609994888306,2,Chlef,41,2,Chlef,4077
2411,2030.0,OULED ZIAD ,36.1321983337402,1.09140002727509,2,Chlef,41,2,Chlef,4077
2312,2067.0,REGGOUN,36.502799987793,1.255499958992,2,Chlef,41,2,Chlef,4077
2308,2044.0,EL-KALAA BOUHALLOU,36.4375991821289,1.29750001430511,2,Chlef,41,2,Chlef,4077
2314,2066.0,SIDI ABDERAHMANE,36.4925994873047,1.09570002555847,2,Chlef,41,2,Chlef,4077
2405,2072.0,CHAABNIA,36.2433013916016,0.950699985027313,2,Chlef,41,2,Chlef,4077
2217,2080.0,ZEBABDJA,36.1761016845703,1.49179995059967,2,Chlef,41,2,Chlef,4077
2421,2056.0,HAY SONELGAZ,36.067699432373,1.12609994411469,2,Chlef,41,2,Chlef,4077
2422,2058.0,HAY BOULEFRED,36.095100402832,1.22549998760223,2,Chlef,41,2,Chlef,4077
2501,2052.0,ZELGOU,36.3382987976074,1.32070004940033,2,Chlef,41,2,Chlef,4077
2219,2078.0,MEZAOUET,36.1427001953125,1.51090002059937,2,Chlef,41,2,Chlef,4077
2218,2079.0,BOUHENYENNE,36.2672996520996,1.53970003128052,2,Chlef,41,2,Chlef,4077
2106,2007.0,ANNEXE,36.1974983215332,1.26059997081757,2,Chlef,41,2,Chlef,4077
2108,2045.0,HAY ABBAD,36.1436996459961,1.34599995613098,2,Chlef,41,2,Chlef,4077
2206,2051.0,HAOUCH EL-GHABA,36.257999420166,1.35319995880127,2,Chlef,41,2,Chlef,4077
2311,2068.0,MAIN SINFITA,36.3917999267578,1.55599999427795,2,Chlef,41,2,Chlef,4077
2223,2075.0,GUELAFTIA,36.1839981079102,1.40699994564056,2,Chlef,41,2,Chlef,4077
2107,2023.0,ZONE 5,36.1609001159668,1.36640000343323,2,Chlef,41,2,Chlef,4077
2323,2064.0,CHAARIR,36.3148002624512,1.09660005569458,2,Chlef,41,2,Chlef,4077
2503,2048.0,KHERBA,36.3605995178223,1.230299949646,2,Chlef,41,2,Chlef,4077
2317,2014.0,ZEBOUDJA CENTRE,36.356201171875,1.4326000213623,2,Chlef,41,2,Chlef,4077
2315,2043.0,TADJNA CENTRE,36.3226013183594,1.1327999830246,2,Chlef,41,2,Chlef,4077
2313,2009.0,ROUTE NATIONALE N°19 SIDI AKKACHA,36.4628982543945,1.30280005931854,2,Chlef,41,2,Chlef,4077
2306,2021.0,RN19,36.3368988037109,1.23969995975494,2,Chlef,41,2,Chlef,4077
2304,2017.0,BENI HAOUA,36.529899597168,1.57400000095367,2,Chlef,41,2,Chlef,4077
2300,2006.0,RUE KOSIER TENES CENTRE TENES,36.5106010437012,1.30610001087189,2,Chlef,41,2,Chlef,4077
2224,2001.0,OUED FODDA CENTRE,36.1847991943359,1.53022003173828,2,Chlef,41,2,Chlef,4077
2212,2010.0,OULED FARES CENTRE,36.2314987182617,1.23829996585846,2,Chlef,41,2,Chlef,4077
2211,2029.0,OULED ABBES,36.2162017822266,1.48459994792938,2,Chlef,41,2,Chlef,4077
2400,2002.0,ROUTE NATIONALE N°04 BOUKADIR,36.0681991577148,1.12890005111694,2,Chlef,41,2,Chlef,4077
2210,2024.0,OUM DROU,36.1983985900879,1.38810002803802,2,Chlef,41,2,Chlef,4077
2205,2008.0,EL KARIMIA CENTRE,36.1102981567383,1.557000041008,2,Chlef,41,2,Chlef,4077
2201,2035.0,BENI RACHED,36.2766990661621,1.50370001792908,2,Chlef,41,2,Chlef,4077
2200,2003.0,ROUTE NATIONALE N°04 OUED FODDA,36.1860008239746,1.52839994430542,2,Chlef,41,2,Chlef,4077
2122,2094.0,"CITE DES FONCTIONNAIRES,CHLEF CENTRE",36.1697006225586,1.34070003032684,2,Chlef,41,2,Chlef,4077
2121,2091.0,HAY ES SALAM,36.1562995910645,1.33990001678467,2,Chlef,41,2,Chlef,4077
2105,2013.0,RUE DE LA RESISTANCE,36.1637992858887,1.3371000289917,2,Chlef,41,2,Chlef,4077
2104,2042.0,HAY LALLA AOUDA,36.1458015441895,1.32299995422363,2,Chlef,41,2,Chlef,4077
2102,2041.0,HAY SAHLI,36.1755981445312,1.32770001888275,2,Chlef,41,2,Chlef,4077
2101,2005.0,HAY BENSOUNA,36.1617012023926,1.32070004940033,2,Chlef,41,2,Chlef,4077
2100,2000.0,RUE DU 20 AOUT ,36.2842483520508,1.55891001224518,2,Chlef,41,2,Chlef,4077
2208,2049.0,KHERRARA,36.2714004516602,1.38660001754761,2,Chlef,41,2,Chlef,4077
2401,2004.0,AIN MERANE CENTRE,36.1624984741211,0.971300005912781,2,Chlef,41,2,Chlef,4077
2420,2050.0,EL-HADJADJ,36.1110000610352,1.35539996623993,2,Chlef,41,2,Chlef,4077
2414,2033.0,SOBHA,36.1105995178223,1.1081999540329,2,Chlef,41,2,Chlef,4077
2409,2037.0,OULED BEN AEK,36.0269012451172,1.2742999792099,2,Chlef,41,2,Chlef,4077
2221,2076.0,BENI OUDRENE,36.1254005432129,1.38119995594025,2,Chlef,41,2,Chlef,4077
2126,2101.0,NOUVELLE VILLE BRADI,36.1513786315918,1.30776596069336,2,Chlef,41,2,Chlef,4077
2507,2092.0,CITE UNIVERSITAIRE,36.2285995483398,1.24290001392365,2,Chlef,41,2,Chlef,4077
2214,2082.0,CINQ PALMIER,36.2817993164062,1.23940002918243,2,Chlef,41,2,Chlef,4077
2318,2019.0,LA GARE,36.3095016479492,1.24489998817444,2,Chlef,41,2,Chlef,4077
2301,2018.0,ABOU EL-HASSEN,36.4177017211914,1.19570004940033,2,Chlef,41,2,Chlef,4077
2119,2088.0,712 LOGTS,36.1346015930176,1.2849999666214,2,Chlef,41,2,Chlef,4077
2319,2062.0,VIEUX TENES,36.5008010864258,1.31420004367828,2,Chlef,41,2,Chlef,4077
2407,2011.0,OUED SLY CENTRE,36.1021003723145,1.19990003108978,2,Chlef,41,2,Chlef,4077
2325,2089.0,SIDI ZIANE,36.3143005371094,1.14830005168915,2,Chlef,41,2,Chlef,4077
2120,2090.0,HAY BADR AADL,36.1455993652344,1.31159996986389,2,Chlef,41,2,Chlef,4077
2427,2086.0,DOUAIDIA,36.055980682373,1.13469099998474,2,Chlef,41,2,Chlef,4077
2506,2087.0,ZONE 9,36.2084007263184,1.26569998264313,2,Chlef,41,2,Chlef,4077
2324,2027.0,TENES CENTRE,36.5108985900879,1.30799996852875,2,Chlef,41,2,Chlef,4077
2412,2025.0,SENDJAS,36.0651016235352,1.39859998226166,2,Chlef,41,2,Chlef,4077
3103,3036.0,UNIVERSITE LAGHOUAT,33.4801788330078,2.51003003120422,3,Laghouat,19,3,Laghouat,25052
3507,3041.0,OUED-M'ZI,33.9097694,2.4500506,3,Laghouat,19,3,Laghouat,25052
3107,3032.0,BORDJ-SENOUCI,33.4931411743164,2.53512001037598,3,Laghouat,19,3,Laghouat,25052
3109,3051.0,LA BASE AIRIENNE LAGHOUAT ,33.4612312316895,2.54595994949341,3,Laghouat,19,3,Laghouat,25052
3112,3049.0,UNIVERSITE POLE 1 LAGHOUAT,33.4746513366699,2.50492000579834,3,Laghouat,19,3,Laghouat,25052
3105,3017.0,CITE 1ER NOV.,33.4714202880859,2.5106201171875,3,Laghouat,19,3,Laghouat,25052
3104,3006.0,EL-MAKAM,33.4742012023926,2.51129007339478,3,Laghouat,19,3,Laghouat,25052
3111,3056.0,RUE DHALAA,33.4826889038086,2.53098011016846,3,Laghouat,19,3,Laghouat,25052
3304,3010.0,EL-KHENEG,33.4438018798828,2.47227001190186,3,Laghouat,19,3,Laghouat,25052
3301,3040.0,EL-HOUITA,33.65148902096512,2.441628218222715,3,Laghouat,19,3,Laghouat,25052
3205,3033.0,BENACER-BENCHOHRA,33.4516716003418,2.59556007385254,3,Laghouat,19,3,Laghouat,25052
3202,3019.0,SIDI-MAKHLOUF,34.0753593444824,3.00535988807678,3,Laghouat,19,3,Laghouat,25052
3200,3003.0,KSAR-EL-HIRANE,33.70120815,3.226928242239316,3,Laghouat,19,3,Laghouat,25052
3113,3052.0,CITE EL WIAM,33.4715003967285,2.50324988365173,3,Laghouat,19,3,Laghouat,25052
3106,3002.0,MAAMOURAH,33.4758110046387,2.52114009857178,3,Laghouat,19,3,Laghouat,25052
3100,3000.0,LAGHOUAT-RP RN 01,33.485279083252,2.52074003219604,3,Laghouat,19,3,Laghouat,25052
3302,3007.0,TADJEMOUT,33.5247917175293,2.31236004829407,3,Laghouat,19,3,Laghouat,25052
3101,3018.0,ELGHARBIA,33.4815483093262,2.52432990074158,3,Laghouat,19,3,Laghouat,25052
3102,3048.0,CASERNE D-C-A,33.4815483093262,2.52385997772217,3,Laghouat,19,3,Laghouat,25052
3403,3008.0,BELLIL,33.1601295471191,3.11395001411438,3,Laghouat,19,3,Laghouat,25052
3510,3021.0,AFLOU-HAI-MED-BOUDIAF,34.0704917907715,2.06362009048462,3,Laghouat,19,3,Laghouat,25052
3110,3015.0,CITE-ESSADIKIA,33.474048614502,2.52360010147095,3,Laghouat,19,3,Laghouat,25052
3201,3014.0,EL-ASSAFIA,33.4925384521484,2.5912299156189,3,Laghouat,19,3,Laghouat,25052
4413,4032.0,OULED-GACEM,35.8899993896484,6.63000011444092,4,Oum El Bouaghi,34,4,Oum El Bouaghi,6188
4405,4042.0,RUE RADJAI AMMAR,35.689998626709,6.80999994277954,4,Oum El Bouaghi,34,4,Oum El Bouaghi,6188
4421,4038.0,OULED-HAMLA,36.0999984741211,6.86999988555908,4,Oum El Bouaghi,34,4,Oum El Bouaghi,6188
4301,4007.0,CITE  LAZABI,35.7900009155273,7.38000011444092,4,Oum El Bouaghi,34,4,Oum El Bouaghi,6188
4104,4009.0,CITE AN NASR,35.8899993896484,7.11999988555908,4,Oum El Bouaghi,34,4,Oum El Bouaghi,6188
4401,4014.0,RUE SOUIKI,35.9799995422363,6.59000015258789,4,Oum El Bouaghi,34,4,Oum El Bouaghi,6188
4404,4006.0,RUE DRAGA MAOUCHE ,35.9000015258789,6.67000007629395,4,Oum El Bouaghi,34,4,Oum El Bouaghi,6188
4403,4005.0,AIN EL BORDJ,35.9735984802246,6.87599992752075,4,Oum El Bouaghi,34,4,Oum El Bouaghi,6188
4313,4047.0,HENCHIR-DOUAMES,35.5499992370605,7.34999990463257,4,Oum El Bouaghi,34,4,Oum El Bouaghi,6188
4422,4037.0,OULED-NACEUR,36.060001373291,6.57999992370605,4,Oum El Bouaghi,34,4,Oum El Bouaghi,6188
4429,4033.0,BIR-TANDJA,36.0499992370605,6.57000017166138,4,Oum El Bouaghi,34,4,Oum El Bouaghi,6188
4308,4027.0,BIR-ROGAA,35.8199996948242,7.26000022888184,4,Oum El Bouaghi,34,4,Oum El Bouaghi,6188
4502,4044.0,RAHIA,35.6500015258789,7.80000019073486,4,Oum El Bouaghi,34,4,Oum El Bouaghi,6188
4501,4045.0,RUE HOUARI-BOUMEDIENNE,35.75,7.65000009536743,4,Oum El Bouaghi,34,4,Oum El Bouaghi,6188
4312,4040.0,EL-DJAZIA,35.6599998474121,7.5,4,Oum El Bouaghi,34,4,Oum El Bouaghi,6188
4306,4026.0,BEHAIR-CHERGUI,35.7599983215332,7.67999982833862,4,Oum El Bouaghi,34,4,Oum El Bouaghi,6188
4303,4024.0,AIN-FERHAT,35.7599983215332,7.48000001907349,4,Oum El Bouaghi,34,4,Oum El Bouaghi,6188
4319,4022.0,BERRIRICHE,35.8400001525879,7.38000011444092,4,Oum El Bouaghi,34,4,Oum El Bouaghi,6188
4317,4046.0,BIR-OUNES,35.810001373291,7.30999994277954,4,Oum El Bouaghi,34,4,Oum El Bouaghi,6188
4101,4030.0,BIR-KHECHBA,35.8800010681152,7.15000009536743,4,Oum El Bouaghi,34,4,Oum El Bouaghi,6188
4417,4012.0,HENCHIR-LAATACHE,35.9300003051758,6.78999996185303,4,Oum El Bouaghi,34,4,Oum El Bouaghi,6188
4107,4028.0,TOUZELINE,35.9300003051758,6.96000003814697,4,Oum El Bouaghi,34,4,Oum El Bouaghi,6188
4402,4043.0,CITE GOUADJLIA,36.0999984741211,6.8899998664856,4,Oum El Bouaghi,34,4,Oum El Bouaghi,6188
4206,4074.0,QUARTIER OUAKAF SEBTI,35.941434,7.186715,4,Oum El Bouaghi,34,4,Oum El Bouaghi,6188
4435,4066.0,CITE ESSALAM,36.1100006103516,6.80000019073486,4,Oum El Bouaghi,34,4,Oum El Bouaghi,6188
4436,4067.0,CITE 20 AOUT 1955,35.9000015258789,6.3899998664856,4,Oum El Bouaghi,34,4,Oum El Bouaghi,6188
4504,4058.0,EL-BELLALA,35.5499992370605,7.6100001335144,4,Oum El Bouaghi,34,4,Oum El Bouaghi,6188
4603,4068.0,CITE AFAK2,35.9799995422363,6.82999992370605,4,Oum El Bouaghi,34,4,Oum El Bouaghi,6188
4304,4051.0,AIN BENAYAD,35.7900009155273,7.51000022888184,4,Oum El Bouaghi,34,4,Oum El Bouaghi,6188
4408,4052.0,RUE DU 1ER NOVEMBRE 54,35.8400001525879,6.67000007629395,4,Oum El Bouaghi,34,4,Oum El Bouaghi,6188
4427,4035.0,RUE D'INDEPENDANCED,36.0400009155273,6.82000017166138,4,Oum El Bouaghi,34,4,Oum El Bouaghi,6188
4204,4023.0,ROUTE DE WILAYA N°9 VERS BATNA N°10,35.6800003051758,7.01000022888184,4,Oum El Bouaghi,34,4,Oum El Bouaghi,6188
4201,4025.0,BIR-AMAR,36.0099983215332,6.98999977111816,4,Oum El Bouaghi,34,4,Oum El Bouaghi,6188
4601,4016.0,CITE-SATHA,35.9900016784668,6.8600001335144,4,Oum El Bouaghi,34,4,Oum El Bouaghi,6188
4426,4010.0,RUE NATIONALE N°10,35.8899993896484,6.38000011444092,4,Oum El Bouaghi,34,4,Oum El Bouaghi,6188
4424,4011.0,OULED-ZAID,36.0999984741211,6.78000020980835,4,Oum El Bouaghi,34,4,Oum El Bouaghi,6188
4113,4069.0,OEB GARE ROUTIERE ,35.8800010681152,7.09999990463257,4,Oum El Bouaghi,34,4,Oum El Bouaghi,6188
4409,4053.0,GARAA SAIDA,36.1100006103516,6.71999979019165,4,Oum El Bouaghi,34,4,Oum El Bouaghi,6188
4311,4013.0,ROUTE NATIONALE N°10,35.6699981689453,7.30999994277954,4,Oum El Bouaghi,34,4,Oum El Bouaghi,6188
4407,4021.0,CARREFOUR BEN M'HIDI ROUTE NATINALE N°3,35.8899993896484,6.30000019073486,4,Oum El Bouaghi,34,4,Oum El Bouaghi,6188
4100,4000.0,BD HOUARI BOUMEDIENE,35.8699989318848,7.09999990463257,4,Oum El Bouaghi,34,4,Oum El Bouaghi,6188
4432,4060.0,ECOLE NATIONALE  DE LA GENDARMERIE,36.0999984741211,6.78999996185303,4,Oum El Bouaghi,34,4,Oum El Bouaghi,6188
4400,4002.0,CITE BRAKNIA 750 LOGTS BOUKETANA ALI,36.0,6.55000019073486,4,Oum El Bouaghi,34,4,Oum El Bouaghi,6188
4315,4004.0,RUE DU 1ER NOVEMBRE,35.6100006103516,7.65999984741211,4,Oum El Bouaghi,34,4,Oum El Bouaghi,6188
4108,4003.0,rue 1er novembre 1954,35.8699989318848,7.1100001335144,4,Oum El Bouaghi,34,4,Oum El Bouaghi,6188
4200,4020.0,DUPW Oum El Bouaghi,35.9300003051758,7.19000005722046,4,Oum El Bouaghi,34,4,Oum El Bouaghi,6188
4302,4057.0,CITE SAIDI DJEMOI,35.7799987792969,7.3899998664856,4,Oum El Bouaghi,34,4,Oum El Bouaghi,6188
4307,4015.0,RUE NATIONALE N°80,35.9000015258789,7.36999988555908,4,Oum El Bouaghi,34,4,Oum El Bouaghi,6188
5409,5025.0,CENTRE VILLE SERIANA,35.4133262634277,5.11071491241455,5,Batna,24,5,Batna,12039
5420,5034.0,CITE HOUARI-BOUMEDIENE,35.3699989318848,5.53999996185303,5,Batna,24,5,Batna,12039
5605,5027.0,ROUTE DE BARIKA,35.3754196166992,5.57370710372925,5,Batna,24,5,Batna,12039
5500,5001.0,CENTRE VILLE BARIKA,35.2306442260742,5.22136497497559,5,Batna,24,5,Batna,12039
5904,5039.0,CHEMMORA CENTRE,35.4005470275879,6.3839111328125,5,Batna,24,5,Batna,12039
5503,5046.0,MERABTINE EL DJEZZAR,35.302661895752,5.1553750038147,5,Batna,24,5,Batna,12039
5504,5037.0,M'DOUKAL CENTRE,35.071117401123,5.10384082794189,5,Batna,24,5,Batna,12039
5511,5022.0,CITE LIBERTE,35.2353210449219,5.22198677062988,5,Batna,24,5,Batna,12039
5902,5062.0,BOULHILET CENTRE,35.4327354431152,6.39397716522217,5,Batna,24,5,Batna,12039
5421,5030.0,RUE 5 JUILLET,35.3802909851074,5.54223203659058,5,Batna,24,5,Batna,12039
5600,5002.0,ROUTE DE BISKRA,35.3899993896484,5.90999984741211,5,Batna,24,5,Batna,12039
5908,5065.0,TOUFFANA OULED FADEL,35.2859878540039,6.37292623519897,5,Batna,24,5,Batna,12039
5113,5017.0,CITE EMIR ABDELKADER,35.3325347900391,6.10534620285034,5,Batna,24,5,Batna,12039
5102,5003.0,ALEES BEN BOULAID,35.3332977294922,6.10267019271851,5,Batna,24,5,Batna,12039
5704,5067.0,GUIGBA,35.4403038024902,5.35227203369141,5,Batna,24,5,Batna,12039
5202,5077.0,CITE FRERES-BENCHADI,35.354434967041,6.12442302703857,5,Batna,24,5,Batna,12039
5817,5058.0,T'LETZ,35.17041015625,6.150221824646,5,Batna,24,5,Batna,12039
5116,5109.0,BATNA-ZONE-INDUSTRIELLE,35.5545425415039,6.15447473526001,5,Batna,24,5,Batna,12039
5400,5013.0,ROUTE RAS EL AIOUN,35.3800010681152,5.53999996185303,5,Batna,24,5,Batna,12039
5611,5050.0,CITE HAMADA,35.221118927002,5.53439712524414,5,Batna,24,5,Batna,12039
5104,5040.0,BATNA CITE KECHIDA,35.3340950012207,6.09241676330566,5,Batna,24,5,Batna,12039
5204,5069.0,SIDI-MANCAR,35.3114738464355,6.22368288040161,5,Batna,24,5,Batna,12039
5512,5028.0,CITE 1000 LOGTS,35.2331047058105,5.21103477478027,5,Batna,24,5,Batna,12039
5310,5024.0,CITE MEZOUDJI-AMOR,35.1516227722168,6.21085500717163,5,Batna,24,5,Batna,12039
5402,5032.0,CENTRE VILLE A. DJASSER,35.5132598876953,6.00059700012207,5,Batna,24,5,Batna,12039
5114,5018.0,AEROPORT BATNA,35.4527168273926,6.18295001983643,5,Batna,24,5,Batna,12039
5404,5047.0,EL-KSAR,35.4030265808105,5.54054307937622,5,Batna,24,5,Batna,12039
5105,5005.0,CITE LAMBARKIA,35.3243637084961,6.11269378662109,5,Batna,24,5,Batna,12039
5305,5083.0,INOUGHISSENE,35.170238494873,6.32099914550781,5,Batna,24,5,Batna,12039
5900,5015.0,CENTRE VILLE EL-MADHER,35.372501373291,6.22109889984131,5,Batna,24,5,Batna,12039
5506,5119.0,OULED-AICHE,35.2829475402832,4.58386516571045,5,Batna,24,5,Batna,12039
5816,5056.0,TAGOUST-EL-HAMRA,35.1406364440918,6.02522611618042,5,Batna,24,5,Batna,12039
5110,5008.0,CITE 742 LOGTS,35.320369720459,6.10598278045654,5,Batna,24,5,Batna,12039
5815,5099.0,OULED-AZZOUZ,35.1841506958008,6.17554616928101,5,Batna,24,5,Batna,12039
5700,5004.0,CITE ADMINISTRATIF,35.6916999816895,6.13059997558594,5,Batna,24,5,Batna,12039
5702,5068.0,DJERIAT,35.4245223999023,5.28022813796997,5,Batna,24,5,Batna,12039
5306,5082.0,KEF-LAAROUS,35.0257148742676,6.08071804046631,5,Batna,24,5,Batna,12039
5303,5084.0,EL-HADJADJ,35.1604270935059,6.02414321899414,5,Batna,24,5,Batna,12039
5301,5060.0,BOUSSALAH,35.1245613098145,6.18104410171509,5,Batna,24,5,Batna,12039
5804,5095.0,BAALI,35.1739349365234,6.16436719894409,5,Batna,24,5,Batna,12039
5807,5108.0,CHIR,35.1258850097656,6.06124496459961,5,Batna,24,5,Batna,12039
5302,5081.0,CHENAOURA,35.1003837585449,6.20234298706055,5,Batna,24,5,Batna,12039
5711,5096.0,TINIBAOUINE,35.3439674377441,5.44244194030762,5,Batna,24,5,Batna,12039
5903,5063.0,BOU-EL-FREISS,35.3056602478027,6.45192813873291,5,Batna,24,5,Batna,12039
5308,5080.0,RHOUFI,35.0340766906738,6.10139894485474,5,Batna,24,5,Batna,12039
5403,5070.0,VILLAGE AGRICOLE DRAA-EL-GBOR,35.2316589355469,6.24311208724976,5,Batna,24,5,Batna,12039
5705,5066.0,OULED-SIDI-SLIMANE,35.6110000610352,5.63299989700317,5,Batna,24,5,Batna,12039
5803,5094.0,AOUGHANIME,35.0718536376953,5.59093999862671,5,Batna,24,5,Batna,12039
5707,5064.0,SEFIANE ROUTE DE BARIKA,35.2616081237793,5.33302879333496,5,Batna,24,5,Batna,12039
5800,5035.0,TENIET-EL-ABED CENTRE,35.1511116027832,6.11525583267212,5,Batna,24,5,Batna,12039
5408,5072.0,R'HAOUET,35.3018836975098,5.54362678527832,5,Batna,24,5,Batna,12039
5414,5112.0,ZANA,35.464729309082,6.05023717880249,5,Batna,24,5,Batna,12039
5708,5129.0,TARF,35.3849411010742,5.27379322052002,5,Batna,24,5,Batna,12039
5309,5079.0,SIDI-ALI,35.125846862793,6.32429122924805,5,Batna,24,5,Batna,12039
5203,5078.0,COMMUNE FESDIS,35.370288848877,6.14469623565674,5,Batna,24,5,Batna,12039
5201,5076.0,AIN-EL-ASSAFEUR,35.3315200805664,6.18187093734741,5,Batna,24,5,Batna,12039
5802,5093.0,AMENTANE,35.065013885498,5.55495691299438,5,Batna,24,5,Batna,12039
5304,5049.0,FOUM-TOUB,35.2420349121094,6.33078718185425,5,Batna,24,5,Batna,12039
5701,5057.0,BOUMAGUER,35.3017501831055,5.33093690872192,5,Batna,24,5,Batna,12039
5813,5059.0,OUARKA,35.0800285339355,5.58084917068481,5,Batna,24,5,Batna,12039
5818,5052.0,ROUTE DE MENAA,35.1110458374023,6.0204291343689,5,Batna,24,5,Batna,12039
5810,5053.0,NARA,35.0934753417969,6.02347087860107,5,Batna,24,5,Batna,12039
5609,5048.0,RUE LOUCHENE TAHAR,35.2240524291992,5.53488206863403,5,Batna,24,5,Batna,12039
5411,5051.0,TALKHEMPT,35.4005012512207,5.47304821014404,5,Batna,24,5,Batna,12039
5814,5036.0,OUED-TAGA CITE NOUVELLE,35.2552375793457,6.24515581130981,5,Batna,24,5,Batna,12039
5718,5019.0,N'GAOUS CENTRE VILLE,35.3310050964355,5.3641300201416,5,Batna,24,5,Batna,12039
5805,5061.0,BAIOU,35.2529296875,6.20309591293335,5,Batna,24,5,Batna,12039
5809,5097.0,MEZLINE,35.1646690368652,6.07133388519287,5,Batna,24,5,Batna,12039
5717,5091.0,RAHBAT,35.4244575500488,5.39187717437744,5,Batna,24,5,Batna,12039
5610,5127.0,LEGRIDET,35.2125015258789,5.42437505722046,5,Batna,24,5,Batna,12039
5603,5123.0,MAAFA,35.1722717285156,5.51329898834229,5,Batna,24,5,Batna,12039
5608,5126.0,MOULIA,35.1631469726562,5.4746561050415,5,Batna,24,5,Batna,12039
5417,5115.0,NAFLA,35.3136177062988,5.56152486801147,5,Batna,24,5,Batna,12039
5508,5121.0,OULED-AMMAR,35.2748908996582,5.09151077270508,5,Batna,24,5,Batna,12039
5412,5110.0,TENIET-ESSADRA,35.5109100341797,6.09425210952759,5,Batna,24,5,Batna,12039
5706,5009.0,CENTRE VILLE RAS-EL-AIOUN,35.4028816223145,5.3912410736084,5,Batna,24,5,Batna,12039
5127,5157.0,CITE 350 LOGEMENTS AADL BATNA,35.55597,6.17414,5,Batna,24,5,Batna,12039
5910,5105.0,COMMUNE DJERMA,35.3941917419434,6.1833610534668,5,Batna,24,5,Batna,12039
5607,5125.0,TAZEGHT,35.1932563781738,5.32329988479614,5,Batna,24,5,Batna,12039
5604,5124.0,RAS-EL-MA,35.2437629699707,5.57010889053345,5,Batna,24,5,Batna,12039
5909,5104.0,COMMUNE BOUMIA,35.4040603637695,6.28550910949707,5,Batna,24,5,Batna,12039
5911,5106.0,FESDIS-FERME,35.6199989318848,6.28999996185303,5,Batna,24,5,Batna,12039
5419,5117.0,LAZROU,35.5032997131348,6.1257791519165,5,Batna,24,5,Batna,12039
5205,5023.0,ROUTE DES RUINESTIMGAD,35.2940216064453,6.28014278411865,5,Batna,24,5,Batna,12039
5118,5137.0,BATNA-UNIVERSITE,35.3227157592773,6.09006977081299,5,Batna,24,5,Batna,12039
5107,5135.0,ECOLE MILITAIRE E-A-A-B,35.0,6.0,5,Batna,24,5,Batna,12039
5422,5138.0,ERIS SERIANA,35.4108734130859,6.12337684631348,5,Batna,24,5,Batna,12039
5501,5045.0,ROUTE BISKRA-BITAM,35.1848907470703,5.2224588394165,5,Batna,24,5,Batna,12039
5413,5111.0,TIMEDOUINE,35.5149917602539,5.43510389328003,5,Batna,24,5,Batna,12039
5200,5011.0,CENTRE VILLE TAZOULT,35.2857398986816,6.15250396728516,5,Batna,24,5,Batna,12039
5407,5016.0,CENTRE VILLE OUED-EL-MA,35.3844184875488,5.59441804885864,5,Batna,24,5,Batna,12039
5101,5014.0,CITE AN-NASR,35.3300857543945,6.10080814361572,5,Batna,24,5,Batna,12039
5612,5133.0,TAMESGHIT,35.2719993591309,5.45219993591309,5,Batna,24,5,Batna,12039
5820,5107.0,TIGHARGHAR,35.0932922363281,5.58121681213379,5,Batna,24,5,Batna,12039
5120,5143.0,ROUTE HAMLA CITE KECHIDA,35.5501518249512,6.1274528503418,5,Batna,24,5,Batna,12039
5719,5132.0,BOUTERAA-KERMIA,35.4059715270996,5.39194583892822,5,Batna,24,5,Batna,12039
5117,5131.0,CITE TAMACHIT BATNA,35.315502166748,6.10203886032104,5,Batna,24,5,Batna,12039
5513,5136.0,BARIKA DIVISION BLINDEE,35.2044143676758,5.22332000732422,5,Batna,24,5,Batna,12039
5300,5007.0,PLACE BEN BOULAID,35.152717590332,6.20590209960938,5,Batna,24,5,Batna,12039
5713,5088.0,KOUDIAT-MESSARA,35.3924942016602,5.4742751121521,5,Batna,24,5,Batna,12039
5906,5102.0,EL-KOUACHIA,35.4152297973633,6.36222505569458,5,Batna,24,5,Batna,12039
5703,5128.0,FENAROU,35.5243988037109,6.20709991455078,5,Batna,24,5,Batna,12039
5812,5038.0,NOUADER ROUTE MENAA,35.1335792541504,6.07495880126953,5,Batna,24,5,Batna,12039
5912,5149.0,CITE DOUAR EL CHAIR ,35.4006385803223,6.38391208648682,5,Batna,24,5,Batna,12039
5311,5043.0,TIFELFEL,35.0700073242188,6.1355562210083,5,Batna,24,5,Batna,12039
5315,5042.0,CITE 1052 LOGTS ARRIS,35.1527061462402,6.22054815292358,5,Batna,24,5,Batna,12039
5905,5101.0,DRAA-BOULTIF,35.4950218200684,6.22106504440308,5,Batna,24,5,Batna,12039
5108,5054.0,CHAABET-OULED-CHELIH,35.313159942627,5.59595489501953,5,Batna,24,5,Batna,12039
5307,5026.0,MEDINA CENTRE,35.1831970214844,6.30356788635254,5,Batna,24,5,Batna,12039
5100,5000.0,Cité des 410 logts ex ECOTEC BATNA,35.3368797302246,6.10416507720947,5,Batna,24,5,Batna,12039
5405,5033.0,CITE ALI-NEMEUR,35.3629302978516,5.5606517791748,5,Batna,24,5,Batna,12039
5715,5089.0,KENDA,35.3947105407715,5.34172677993774,5,Batna,24,5,Batna,12039
5106,5006.0,FRERES BOUABSA BATNA,35.3316612243652,6.10386514663696,5,Batna,24,5,Batna,12039
5709,5055.0,TAXLENT,35.3619613647461,5.47585821151733,5,Batna,24,5,Batna,12039
5109,5073.0,ROUTE DE AIN TOUTA,35.3020515441895,6.0440821647644,5,Batna,24,5,Batna,12039
5418,5116.0,EL-HASSI,35.480899810791,5.56228399276733,5,Batna,24,5,Batna,12039
5808,5012.0,CENTRE VILLE MENAA,35.1037178039551,6.0017352104187,5,Batna,24,5,Batna,12039
5907,5103.0,LEGRINE,35.3436508178711,6.43426609039307,5,Batna,24,5,Batna,12039
5416,5114.0,CHARF-EL-AIN,35.4015617370605,5.51098394393921,5,Batna,24,5,Batna,12039
5806,5041.0,BOUZINA CENTRE,35.155200958252,6.05574083328247,5,Batna,24,5,Batna,12039
5712,5118.0,CHOTT,35.5307502746582,5.50259017944336,5,Batna,24,5,Batna,12039
5613,5140.0,"CITE CHAFFET, COMMUNE AIN TOUTA, BATNA",35.3991088867188,5.91983890533447,5,Batna,24,5,Batna,12039
5206,5142.0,ALLEES MENZER CHERIF ,35.2900466918945,6.15351295471191,5,Batna,24,5,Batna,12039
5121,5144.0,CITE 208 LOGTS CITE BOUZOURANE,35.5622062683105,6.19568872451782,5,Batna,24,5,Batna,12039
5112,5021.0,CITE EL BOUSTENE,35.3203277587891,6.09579706192017,5,Batna,24,5,Batna,12039
5115,5010.0,CITE 800 LOGTS,35.3246650695801,6.09431123733521,5,Batna,24,5,Batna,12039
6812,6041.0,IL MATTEN,36.6717987060547,4.79061985015869,6,Béjaïa,46,6,Béjaïa,3224
6705,6076.0,MELBOU  CENTRE,36.6394996643066,5.360680103302,6,Béjaïa,46,6,Béjaïa,3224
6715,6114.0,TIZI EL OUED  CENTRE  MELBOU ,36.6251983642578,5.33066987991333,6,Béjaïa,46,6,Béjaïa,3224
6706,6077.0,EL ALEM,36.5719985961914,5.3737998008728,6,Béjaïa,46,6,Béjaïa,3224
6502,6029.0,KIRIA,36.6833000183105,4.66666984558105,6,Béjaïa,46,6,Béjaïa,3224
6606,6109.0,TAMOKRA,36.3931999206543,4.66446018218994,6,Béjaïa,46,6,Béjaïa,3224
6504,6025.0,TIZAMOURINE,36.2942008972168,4.5544900894165,6,Béjaïa,46,6,Béjaïa,3224
6813,6037.0,TINEBDAR,36.625301361084,4.6810097694397,6,Béjaïa,46,6,Béjaïa,3224
6401,6092.0,AGHBALA,36.5833015441895,4.93330001831055,6,Béjaïa,46,6,Béjaïa,3224
6808,6036.0,TAKERIETZ,36.6299018859863,4.83300018310547,6,Béjaïa,46,6,Béjaïa,3224
6304,6026.0,BENI MANSOUR,36.3361015319824,4.35222005844116,6,Béjaïa,46,6,Béjaïa,3224
6505,6035.0,TAOURIT IGHIL,36.7000007629395,4.73600006103516,6,Béjaïa,46,6,Béjaïa,3224
6503,6028.0,SILLAL,36.6664009094238,4.69721984863281,6,Béjaïa,46,6,Béjaïa,3224
6411,6020.0,SEMAOUNE CENTRE,36.6150016784668,4.82369995117188,6,Béjaïa,46,6,Béjaïa,3224
6409,6032.0,KENDIRA CHEF LIEU COMMUNALE,36.539852142334,5.02542686462402,6,Béjaïa,46,6,Béjaïa,3224
6408,6096.0,TADART TAMOKRANT,36.6440010070801,4.90500020980835,6,Béjaïa,46,6,Béjaïa,3224
6807,6085.0,SIDI AYAD,36.61669921875,4.75360012054443,6,Béjaïa,46,6,Béjaïa,3224
6803,6043.0,EL FLAYE,36.6021003723145,4.66359996795654,6,Béjaïa,46,6,Béjaïa,3224
6407,6095.0,KHELLIL,36.5666999816895,4.96667003631592,6,Béjaïa,46,6,Béjaïa,3224
6811,6042.0,SOUK OUFELA,36.6060981750488,4.63901996612549,6,Béjaïa,46,6,Béjaïa,3224
6710,6044.0,TEREGRET  06044  Cne AIT SEMAIL,36.5469017028809,5.22966003417969,6,Béjaïa,46,6,Béjaïa,3224
6410,6030.0,TOUDJA,36.75,4.90000009536743,6,Béjaïa,46,6,Béjaïa,3224
6602,6034.0,AMALOU,36.4832992553711,4.65000009536743,6,Béjaïa,46,6,Béjaïa,3224
6105,6047.0,VILLAGE AMITIK N'TAFATH BEJAIA,36.75,5.05673313140869,6,Béjaïa,46,6,Béjaïa,3224
6307,6031.0,BOUHAMZA,36.4897003173828,4.60677003860474,6,Béjaïa,46,6,Béjaïa,3224
6703,6016.0,DARGUINA CENTRE,36.5647010803223,5.3051700592041,6,Béjaïa,46,6,Béjaïa,3224
6708,6012.0,SOUK EL TENINE CENTRE,36.6251983642578,5.33607006072998,6,Béjaïa,46,6,Béjaïa,3224
6800,6005.0,SIDI AICH CENTRE,36.6128997802734,4.68830013275146,6,Béjaïa,46,6,Béjaïa,3224
6801,6019.0,AKABIOU CENTRE,36.6500015258789,4.76667022705078,6,Béjaïa,46,6,Béjaïa,3224
6802,6022.0,CHEMINI CENTRE,36.5999984741211,4.61667013168335,6,Béjaïa,46,6,Béjaïa,3224
6810,6087.0,TIBANE,36.6167984008789,4.64978981018066,6,Béjaïa,46,6,Béjaïa,3224
6424,6146.0,Village AIT OUNIR,36.5569000244141,4.86660003662109,6,Béjaïa,46,6,Béjaïa,3224
6208,6065.0,TIZI OUAKLANE,36.6699981689453,5.15999984741211,6,Béjaïa,46,6,Béjaïa,3224
6423,6145.0,Village AMARAT,36.5666694641113,4.96667003631592,6,Béjaïa,46,6,Béjaïa,3224
6608,6079.0,VILLAGE  TIBOUAMOUCHINE  06079,36.5332984924316,4.69999980926514,6,Béjaïa,46,6,Béjaïa,3224
6707,6078.0,AIT IDRISS,36.4795989990234,4.67969989776611,6,Béjaïa,46,6,Béjaïa,3224
6605,6038.0,SIDI SAID,36.5640983581543,4.71261978149414,6,Béjaïa,46,6,Béjaïa,3224
6806,6084.0,SEMAOUNE CHEMINI,36.5956993103027,4.61520004272461,6,Béjaïa,46,6,Béjaïa,3224
6700,6004.0,PLACE 8 MAI 1945    KHERRATA,36.4926986694336,5.27758979797363,6,Béjaïa,46,6,Béjaïa,3224
6121,6144.0,SIEGE DE LA DIRECTION DE L'UPW  BEJAIA,36.753612,5.073396,6,Béjaïa,46,6,Béjaïa,3224
6328,6141.0,RUE DE LA GARE  N° 40  TOURNANT  CHALAL  AKBOU,36.4500007629395,4.55359983444214,6,Béjaïa,46,6,Béjaïa,3224
6421,6132.0,CITE AKAL ABERKAN. EL KSEUR,36.6804733276367,4.84818983078003,6,Béjaïa,46,6,Béjaïa,3224
6420,6120.0,R.U.BERCHICHE 3. ELKSEUR,36.6800003051758,4.85200023651123,6,Béjaïa,46,6,Béjaïa,3224
6327,6121.0,HELLOUANE,36.5419998168945,4.61290979385376,6,Béjaïa,46,6,Béjaïa,3224
6207,6062.0,MELLALA,36.7167015075684,5.01667022705078,6,Béjaïa,46,6,Béjaïa,3224
6419,6117.0,EL HAMMA,36.6278495788574,4.95846700668335,6,Béjaïa,46,6,Béjaïa,3224
6609,6099.0,VILLAGE  AKHNAK  06099,36.5471992492676,4.68611001968384,6,Béjaïa,46,6,Béjaïa,3224
6500,6021.0,ADEKAR CENTRE CHEF LIEU COMMUNAL,36.6898994445801,4.66666984558105,6,Béjaïa,46,6,Béjaïa,3224
6400,6008.0,AMIZOUR CENTRE,36.644100189209,4.90561008453369,6,Béjaïa,46,6,Béjaïa,3224
6711,6080.0,TIZOUEL 06080  Cne  AIT SMAIL,36.5462989807129,5.22966003417969,6,Béjaïa,46,6,Béjaïa,3224
6405,6033.0,FERAOUNE CENTRE,36.5569000244141,4.8664698600769,6,Béjaïa,46,6,Béjaïa,3224
6200,6023.0,TICHI CENTRE,36.6674995422363,5.16008996963501,6,Béjaïa,46,6,Béjaïa,3224
6613,6064.0,IGHIL OUANTAR,36.682300567627,4.99020004272461,6,Béjaïa,46,6,Béjaïa,3224
6804,6082.0,BENI DJELLIL,36.5833015441895,4.93333005905151,6,Béjaïa,46,6,Béjaïa,3224
6603,6024.0,BENI MAOUCHE CENTRE,36.478099822998,4.63844013214111,6,Béjaïa,46,6,Béjaïa,3224
6702,6015.0,BORDJ MIRA  06015  Cne TASKERIOUT  ,36.5475997924805,5.27334976196289,6,Béjaïa,46,6,Béjaïa,3224
6404,6003.0,EL KSEUR CENTRE,36.6845016479492,4.85212993621826,6,Béjaïa,46,6,Béjaïa,3224
6306,6018.0,BOUDJELLIL CENTRE,36.3339996337891,4.35869979858398,6,Béjaïa,46,6,Béjaïa,3224
6300,6001.0,RUE  ABDELKADER  SAHNOUNE   N° 12  AKBOU CENTRE,36.4590148925781,5.53347826004028,6,Béjaïa,46,6,Béjaïa,3224
6209,6066.0,TALA HAMZA,36.7052993774414,5.03754997253418,6,Béjaïa,46,6,Béjaïa,3224
6203,6017.0,OUED GHIR CENTRE,36.7103996276855,4.97731018066406,6,Béjaïa,46,6,Béjaïa,3224
6201,6007.0,AOKAS CENTRE,36.63330078125,5.25360012054443,6,Béjaïa,46,6,Béjaïa,3224
6204,6059.0,VILLAGE  TAGUEMOUNT,36.6143989562988,5.08720016479492,6,Béjaïa,46,6,Béjaïa,3224
6308,6013.0,GUENDOUZE CENTRE,36.3744010925293,4.78888988494873,6,Béjaïa,46,6,Béjaïa,3224
6315,6069.0,IGHIL NASSER,36.4630012512207,4.50530004501343,6,Béjaïa,46,6,Béjaïa,3224
6122,6149.0,CITE TOBAL,36.7501633,5.0715664,6,Béjaïa,46,6,Béjaïa,3224
6120,6134.0,CITE   MEZZAI  ABDELKADER BEJAIA,36.75,5.05670022964478,6,Béjaïa,46,6,Béjaïa,3224
6100,6000.0,PLACE MEDJAHED CHERIF BEJAIA ,36.75,5.06666994094849,6,Béjaïa,46,6,Béjaïa,3224
6509,6106.0,BENI K'SILA,36.8824996948242,4.66191005706787,6,Béjaïa,46,6,Béjaïa,3224
6311,6057.0,IGHRAM,36.4630012512207,4.50532007217407,6,Béjaïa,46,6,Béjaïa,3224
6302,6039.0,BEN MELIKECHE,36.4333000183105,4.43599987030029,6,Béjaïa,46,6,Béjaïa,3224
6418,6102.0,MERDJ OUAMENE,36.6815376281738,4.94902610778809,6,Béjaïa,46,6,Béjaïa,3224
6600,6011.0,RUE MOHALI  LARBI  SEDDOUK  06011,36.2248992919922,4.4109001159668,6,Béjaïa,46,6,Béjaïa,3224
6416,6100.0,TIZI BENI KHETTAB,36.5604095458984,4.85453987121582,6,Béjaïa,46,6,Béjaïa,3224
6309,6014.0,IGHIL ALI CENTRE,36.3333015441895,4.46667003631592,6,Béjaïa,46,6,Béjaïa,3224
6403,6009.0,BARBACHA CENTRE,36.5728988647461,4.97119998931885,6,Béjaïa,46,6,Béjaïa,3224
6326,6111.0,BOULEVARD  1er NOV N° 226  AKBOU ,36.4589996337891,4.53340005874634,6,Béjaïa,46,6,Béjaïa,3224
6322,6052.0,CHELLATA,36.519401550293,4.49749994277954,6,Béjaïa,46,6,Béjaïa,3224
6413,6071.0,ACHELOUF,36.7585983276367,4.8932900428772,6,Béjaïa,46,6,Béjaïa,3224
6313,6006.0,RUE PRINCIPALE ABDERRAHMANE MIRA  06006,36.3843994140625,4.39927005767822,6,Béjaïa,46,6,Béjaïa,3224
6607,6081.0,AIT ADJISSA,36.7285995483398,4.958899974823,6,Béjaïa,46,6,Béjaïa,3224
6312,6010.0,IGHER AMOKRANE,36.5385208129883,4.618323802948,6,Béjaïa,46,6,Béjaïa,3224
6318,6048.0,TASLENT,36.4500007629395,5.55359983444214,6,Béjaïa,46,6,Béjaïa,3224
6317,6045.0,DJAMAA,36.551830291748,4.56357097625732,6,Béjaïa,46,6,Béjaïa,3224
6712,6070.0,VILLAGE  BERZAKH  DRAA EL  KAID,36.4205017089844,5.22450017929077,6,Béjaïa,46,6,Béjaïa,3224
7104,7001.0,RUE ZAATCHA STAR BEN MELOUK  BISKRA,34.8459892272949,5.7174506187439,7,Biskra,26,7,Biskra,10212
7210,7053.0,CITE 200 LOGEMENT EL KANTARA,35.2164268493652,5.71671009063721,7,Biskra,26,7,Biskra,10212
7209,7049.0,ROUTE NATIONAL N°03,34.9738693237305,5.62786769866943,7,Biskra,26,7,Biskra,10212
7311,7067.0,RUE TASOURIT MESSAOUD MEZIRAA,34.7206764221191,6.29172992706299,7,Biskra,26,7,Biskra,10212
7321,7077.0,EL HAY EL DJADIDE SIDI-KHELLIL,34.8142967224121,5.9082202911377,7,Biskra,26,7,Biskra,10212
7403,7027.0,RUE SOUERET EL TAYB EL GHROUS,34.7045059204102,5.28487157821655,7,Biskra,26,7,Biskra,10212
7407,7066.0,RUE AKID EL HAOUAS MEGLOUB,34.7890548706055,5.595130443573,7,Biskra,26,7,Biskra,10212
7109,7014.0, HAI BELAIATH BISKRA,34.8563537597656,5.71149921417236,7,Biskra,26,7,Biskra,10212
7413,7037.0,RUE MESTAOUI AIN-EL-KERMA,34.766040802002,5.54433012008667,7,Biskra,26,7,Biskra,10212
7202,7013.0,RUE 10 JUILLET 57 AIN ZAATOUT,35.1457138061523,5.83740615844727,7,Biskra,26,7,Biskra,10212
7208,7029.0,ROUTE DE BATNA EL KANTARA,35.235237121582,5.69952011108398,7,Biskra,26,7,Biskra,10212
7415,7055.0,HAY FARFAR TOLGA,34.728889465332,5.40058612823486,7,Biskra,26,7,Biskra,10212
7206,7059.0,ROUTE DJEMOURAH GUEDILA,35.0590896606445,5.7840781211853,7,Biskra,26,7,Biskra,10212
7207,7081.0,RUE DADA AMAR AIN ZAATOUT,35.1577453613281,5.84612274169922,7,Biskra,26,7,Biskra,10212
7418,7082.0,RUE EMIR AEK TOLGA,34.72224,5.37845,7,Biskra,26,7,Biskra,10212
7112,7019.0,HAI SIDI GHEZEL BISKRA,34.8259811401367,5.69747877120972,7,Biskra,26,7,Biskra,10212
7111,7018.0,HAI LEBCHECHE BISKRA ,34.754626,5.108495,7,Biskra,26,7,Biskra,10212
7305,7050.0,ROUTE D'ARRIS  DROH,34.8677177429199,5.872145652771,7,Biskra,26,7,Biskra,10212
7307,7028.0,HAI EL MOUDJAHIDINE EL HAOUCH,34.5795822143555,6.01645946502686,7,Biskra,26,7,Biskra,10212
7408,7034.0,RUE DES COUSINS ZAGHEZ  MEKHADMA,34.6506309509277,5.47095966339111,7,Biskra,26,7,Biskra,10212
7412,7083.0,ZAATCHA-BEN-BOULAID,34.8026924133301,5.64060115814209,7,Biskra,26,7,Biskra,10212
7308,7052.0, RUE ECOLE CHOUCHANE LAKHDAR EL-HORAYA,34.7117195129395,5.96395444869995,7,Biskra,26,7,Biskra,10212
7602,7075.0,RUE REGAZ SADOK SEHIRA,34.6501083374023,5.41854667663574,7,Biskra,26,7,Biskra,10212
7324,7058.0, RUE ECOLE SLATNIA ADBELKARIM GHARTHA,34.7764091491699,5.92836666107178,7,Biskra,26,7,Biskra,10212
7402,7022.0,RUE EMIR AEK BOUCHAGROUNE,34.7065773010254,5.49658632278442,7,Biskra,26,7,Biskra,10212
7601,7080.0,RUE REZIGAT AMOR  OURLAL,34.6538734436035,5.49637794494629,7,Biskra,26,7,Biskra,10212
7416,7051.0,HAY EL-AMRI,34.7053146362305,5.28439617156982,7,Biskra,26,7,Biskra,10212
7803,7043.0,RUE LAKHDAR BOUHITEM BEGHILA,34.7386779785156,6.42549085617065,7,Biskra,26,7,Biskra,10212
7319,7060.0,HAI EL BLIDA M'CHOUNECHE,34.9518699645996,6.00893068313599,7,Biskra,26,7,Biskra,10212
7417,7046.0,CITE AMIROUCHE  BOUCHAGROUNE,34.7206573486328,5.46779632568359,7,Biskra,26,7,Biskra,10212
7215,7093.0,HAY OULED SEID ,35.0013389587402,5.78276395797729,7,Biskra,26,7,Biskra,10212
7304,7024.0,RUE AMRANE MOHAMED CHETMA,34.8493881225586,5.79372692108154,7,Biskra,26,7,Biskra,10212
7119,7088.0,GARE ROUTIERE SOGRAL BISKRA,34.8272438049316,5.68094778060913,7,Biskra,26,7,Biskra,10212
7310,7010.0,RUE MEOURI M'CHOUNECHE,34.9410171508789,5.99362468719482,7,Biskra,26,7,Biskra,10212
7121,7096.0,DUPW BISKRA ,34.85038,5.72805,7,Biskra,26,7,Biskra,10212
7105,7056.0, HAY FELIACHE BISKRA,34.8262367248535,5.75103139877319,7,Biskra,26,7,Biskra,10212
7203,7023.0,RUE 19 JUIN BRANIS,34.9954605102539,5.76987028121948,7,Biskra,26,7,Biskra,10212
7404,7031.0,RUE SELLAMINE AISSA FOUGHALA,34.7176513671875,5.34242105484009,7,Biskra,26,7,Biskra,10212
7400,7003.0,AV 5 JUILLET TOLGA,34.7315406799316,5.38163185119629,7,Biskra,26,7,Biskra,10212
7118,7086.0,CITE ADMINISTRATIVE EL ALIA,34.8549118041992,5.74883127212524,7,Biskra,26,7,Biskra,10212
7406,7033.0,RUE SAHEL SEDIK LIOUA,34.6366386413574,5.40159177780151,7,Biskra,26,7,Biskra,10212
7115,7020.0,UNIVERSITE KHAIDER MED  BISKRA,34.8450584411621,5.74735927581787,7,Biskra,26,7,Biskra,10212
7110,7017.0,RUE FERAH MELOUD EL ALIA BISKRA,34.8530578613281,5.74099111557007,7,Biskra,26,7,Biskra,10212
7107,7015.0,CITE 726 LOGTS BISKRA,34.8489379882812,5.70827627182007,7,Biskra,26,7,Biskra,10212
7120,7092.0,HAY EL MOUDJAHIDINE BISKRA,34.8604011535645,5.7178168296814,7,Biskra,26,7,Biskra,10212
7103,7016.0,RUE FRERES OUANOUGHI EL ALIA BISKRA,34.8588562011719,5.7418851852417,7,Biskra,26,7,Biskra,10212
7200,7030.0,RUE BOUDJEMAA MIHOUB EL OUTAYA,35.035472869873,5.59451103210449,7,Biskra,26,7,Biskra,10212
7205,7008.0,RUE 5 JUILLET EL KANTARA,35.2257347106934,5.710205078125,7,Biskra,26,7,Biskra,10212
7411,7011.0,RUE CHAIBA ABDEL MADJID OURLAL,34.6561622619629,5.51395606994629,7,Biskra,26,7,Biskra,10212
7100,7000.0,BOULEVARD EMIR AEK BISKRA,34.8525276184082,5.73059320449829,7,Biskra,26,7,Biskra,10212
7410,7035.0,CITE BELKHOUKH OUMACHE,34.6905174255371,5.69819021224976,7,Biskra,26,7,Biskra,10212
7102,7006.0,RUE KHRACHI BRAHIM BISKRA,34.8324928283691,5.72413110733032,7,Biskra,26,7,Biskra,10212
7204,7025.0,RUE 1ER NOV DJEMMORAH,35.0708198547363,5.84650945663452,7,Biskra,26,7,Biskra,10212
7301,7039.0,ROUTE NATIONAL N° 83 AIN-NAGA,35.1223373413086,5.61521100997925,7,Biskra,26,7,Biskra,10212
7405,7009.0,RUE 1ER NOV 54 LICHANA,34.725700378418,5.43127298355103,7,Biskra,26,7,Biskra,10212
7300,7005.0,ROUTE AIN NAGA SIDI OKBA,34.7501373291016,5.9084267616272,7,Biskra,26,7,Biskra,10212
8106,8001.0,PLACE REPUBLIQUE,31.6187381744385,-2.21359491348267,8,Bechar,14,8,Béchar,49400
8108,8024.0,HAI ENNOUR BECHAR,31.6095542907715,-2.21359491348267,8,Bechar,14,8,Béchar,49400
8101,8005.0,BECHAR DJEDID ,31.5631198883057,-2.23414993286133,8,Bechar,14,8,Béchar,49400
8119,8013.0,HAI EL DJORF BECHAR ,31.5735492706299,-2.23025608062744,8,Bechar,14,8,Béchar,49400
8103,8017.0,HAI RIADHI BECHAR,31.5990619659424,-2.22258496284485,8,Bechar,14,8,Béchar,49400
8112,8004.0, DEBDABA BECHAR  ,31.6209583282471,-2.204754114151,8,Bechar,14,8,Béchar,49400
8118,8014.0,HAI EL FETH BECHAR ,31.6326293945312,-2.197429895401,8,Bechar,14,8,Béchar,49400
8104,8018.0,3 Â°RM  BECHAR ,31.6238460540771,-2.19743490219116,8,Bechar,14,8,Béchar,49400
8116,8007.0,HAI EL INARA BECHAR,31.584924697876,-2.2259418964386,8,Bechar,14,8,Béchar,49400
8113,8009.0,CTE LA BARGA BECHAR,31.6109962463379,-2.22422909736633,8,Bechar,14,8,Béchar,49400
8133,8065.0,HAI EL MONGAR DEBDABA BECHAR,31.61667,-2.21667,8,Bechar,14,8,Béchar,49400
8122,8015.0,HAI ESSALAM BECHAR ,31.6238460540771,-2.22247004508972,8,Bechar,14,8,Béchar,49400
8105,8043.0,OUAKDA BECHAR ,31.6521701812744,-2.18398690223694,8,Bechar,14,8,Béchar,49400
8130,8062.0,CITE AADL BECHAR,31.5756492614746,-2.20777010917664,8,Bechar,14,8,Béchar,49400
8117,8006.0,HAI EL BADR  BECHAR ,31.5944747924805,-2.23222899436951,8,Bechar,14,8,Béchar,49400
8121,8008.0,HAI M'RAH BECHAR,31.6075286865234,-2.22057604789734,8,Bechar,14,8,Béchar,49400
8126,8053.0,ZONE BLEU BECHAR,31.5827617645264,-2.24027609825134,8,Bechar,14,8,Béchar,49400
8129,8061.0,ROUTE-LAHMAR,31.6385803222656,-2.22277998924255,8,Bechar,14,8,Béchar,49400
8128,8059.0,GARE ROUTIERE BECHAR ,31.6375617980957,-2.19923901557922,8,Bechar,14,8,Béchar,49400
8100,8000.0,CENTRE VILLE,31.6165199279785,-2.21463990211487,8,Bechar,14,8,Béchar,49400
8125,8057.0,CITE UNIVERSITAIRE 1500 LITS BECHAR,31.652811050415,-2.22380805015564,8,Bechar,14,8,Béchar,49400
8123,8054.0,CENTRE-UNIVERSITAIRE BECHAR ,31.603702545166,-2.23444104194641,8,Bechar,14,8,Béchar,49400
10104,10018.0,CITE DES 280 LOGTS BAT 03 DRAA EL BORDJ,36.3717002868652,3.88930010795593,10,Bouira,38,10,Bouira,4454
10508,10042.0,RAOURAOUA 10460,36.2355003356934,3.644700050354,10,Bouira,38,10,Bouira,4454
10100,10000.0,AXE FINANCIER CITE GOUIZI SAID BOUIRA nouveau siége UPW,36.3768882751465,3.90021204948425,10,Bouira,38,10,Bouira,4454
10225,10093.0,TIKSIRIDENE 10194,36.4011001586914,4.30779981613159,10,Bouira,38,10,Bouira,4454
10317,10054.0,BOUKRAM GADIR 10213,36.4693984985352,3.29879999160767,10,Bouira,38,10,Bouira,4454
10517,10107.0,ROUTE DE SOUK EL KHEMIS ,36.2048988342285,3.8092999458313,10,Bouira,38,10,Bouira,4454
10214,10043.0,SAHARIDJ 10140,36.4000015258789,4.25,10,Bouira,38,10,Bouira,4454
10504,10023.0,RUE PRINCIPAL 10490,36.2187995910645,3.81520009040833,10,Bouira,38,10,Bouira,4454
10217,10011.0,ATH MANSOUR ,36.2999992370605,4.31666994094849,10,Bouira,38,10,Bouira,4454
10412,10083.0,RIDANE 10300,36.0738983154297,3.46239995956421,10,Bouira,38,10,Bouira,4454
10213,10081.0,OULED-RACHED 10185,36.2099990844727,4.1100001335144,10,Bouira,38,10,Bouira,4454
10323,10025.0,KADIRIA 1ER NOV 215 LOGTS ,36.5369987487793,3.67860007286072,10,Bouira,38,10,Bouira,4454
10301,10048.0,AIN-BEIDA 10231 ,36.4491996765137,3.46830010414124,10,Bouira,38,10,Bouira,4454
10109,10101.0,CITE 140 LOGTS 10101 BOUIRA,36.3891563415527,3.88670897483826,10,Bouira,38,10,Bouira,4454
10117,10115.0,RUE GHERBI EL GHEMRAOUI bouira,36.37489,3.902,10,Bouira,38,10,Bouira,4454
10307,10006.0,ROUTE N° 5 KADIRIA,36.5341987609863,3.68219995498657,10,Bouira,38,10,Bouira,4454
10203,10012.0,BECHLOUL CENTRE,36.3166999816895,4.06666994094849,10,Bouira,38,10,Bouira,4454
10306,10037.0,GUERROUMA 10230,36.4337005615234,3.42490005493164,10,Bouira,38,10,Bouira,4454
10316,10090.0,TAIOUINE CENTRE 10090,36.543098449707,3.66499996185303,10,Bouira,38,10,Bouira,4454
10208,10022.0,EL ESNAM CENTRE,36.3221015930176,4.01189994812012,10,Bouira,38,10,Bouira,4454
10304,10036.0,DJEBAHIA 10280,36.4776992797852,3.75620007514954,10,Bouira,38,10,Bouira,4454
10218,10008.0,AHL EL KSAR CENTRE,36.2523002624512,4.04129981994629,10,Bouira,38,10,Bouira,4454
10210,10024.0,HAIZER CENTRE,36.3973999023438,3.99970006942749,10,Bouira,38,10,Bouira,4454
10108,10027.0,OULED-BOUCHIA BOUIRA,36.3568992614746,3.90400004386902,10,Bouira,38,10,Bouira,4454
10602,10055.0,CHABET-BRAHEM 10055,36.4080009460449,3.93379998207092,10,Bouira,38,10,Bouira,4454
10211,10073.0,MERKALLA 10168,36.4301986694336,3.98639988899231,10,Bouira,38,10,Bouira,4454
10216,10007.0,AGHBALOU CENTRE,36.4667015075684,3.34999990463257,10,Bouira,38,10,Bouira,4454
10229,10050.0,ATH-BOUALI 10050,36.3390998840332,4.33330011367798,10,Bouira,38,10,Bouira,4454
10107,10017.0,CITE 1100 LOGTS BOUIRA ,36.388801574707,3.88170003890991,10,Bouira,38,10,Bouira,4454
10321,10026.0,CITE OUALDACHE LAKHDARIA,36.5727005004883,3.5961000919342,10,Bouira,38,10,Bouira,4454
10502,10032.0,AIN LALOUI 10410,36.3203010559082,3.74670004844666,10,Bouira,38,10,Bouira,4454
10503,10013.0,PLACE ZOUBIRI BOUAZA 10440,36.2626991271973,3.58459997177124,10,Bouira,38,10,Bouira,4454
10500,10005.0,ROUTE MIHOUBI BRAHIM AIN BESSAM,36.2921981811523,3.67030000686646,10,Bouira,38,10,Bouira,4454
10415,10029.0,RUE MAZANI MOKHTAR 10029,36.1484985351562,3.69050002098083,10,Bouira,38,10,Bouira,4454
10325,10099.0,BEN HAROUNE EST 10099,36.4574012756348,3.7688000202179,10,Bouira,38,10,Bouira,4454
10101,10084.0,SAID-ABID 10002,36.3504981994629,3.833899974823,10,Bouira,38,10,Bouira,4454
10231,10100.0,IGHREM CENTRE 10100,36.3377990722656,4.18569993972778,10,Bouira,38,10,Bouira,4454
10516,10102.0,CITE DAHMANI MAHFOUDH 10102,36.2943000793457,3.63809990882874,10,Bouira,38,10,Bouira,4454
10324,10098.0,KRICHICHE CITE CNEP LAKHDARIA,36.5657005310059,3.58529996871948,10,Bouira,38,10,Bouira,4454
10207,10021.0,EL ADJIBA CENTRE,36.3258018493652,4.1502799987793,10,Bouira,38,10,Bouira,4454
10411,10058.0,EL HAKIMIA 10320,36.0917015075684,3.77589988708496,10,Bouira,38,10,Bouira,4454
10103,10001.0,CITE 98 LOGTS FARACHATI BOUIRA,36.3758316040039,3.88115000724792,10,Bouira,38,10,Bouira,4454
10414,10028.0,SEG AZZOUZ ROUTE DE BORDJ OKHRIIS 10304,36.1495018005371,3.70499992370605,10,Bouira,38,10,Bouira,4454
10222,10086.0,SELLOUM 10192,36.4114990234375,4.31010007858276,10,Bouira,38,10,Bouira,4454
10407,10040.0,MESDOUR 10341,36.0782012939453,4.06979990005493,10,Bouira,38,10,Bouira,4454
10205,10034.0,AIT LAAZIZ 10110,36.4508018493652,3.87660002708435,10,Bouira,38,10,Bouira,4454
10401,10014.0,BORDJ OKHRISS RUE PRINCIPAL 10340,36.081901550293,3.97270011901855,10,Bouira,38,10,Bouira,4454
10318,10078.0,OULED-GACEM 10242,36.4863014221191,3.54850006103516,10,Bouira,38,10,Bouira,4454
10403,10020.0,DIRAH 10370,36.1304016113281,3.57590007781982,10,Bouira,38,10,Bouira,4454
10110,10108.0,CITE 1100 BOUIRA 10108,36.3772048950195,3.88404631614685,10,Bouira,38,10,Bouira,4454
10601,10092.0,TIKBOUCHT 10169,36.3788986206055,3.97370004653931,10,Bouira,38,10,Bouira,4454
10112,10103.0,RAS BOUIRA BENABDELLAH 10112,36.3648986816406,3.63639998435974,10,Bouira,38,10,Bouira,4454
10209,10063.0,GUENTOUR CENTRE VILLE 10167,36.4013977050781,4.04514789581299,10,Bouira,38,10,Bouira,4454
10212,10076.0,OUED-EL-KHEMIS 10182,36.2140998840332,4.11399984359741,10,Bouira,38,10,Bouira,4454
10223,10087.0,SEMMACHE 10161,36.342098236084,4.15339994430542,10,Bouira,38,10,Bouira,4454
10311,10080.0,OULED-LALEM 10261,36.5167007446289,3.64790010452271,10,Bouira,38,10,Bouira,4454
10515,10009.0,CITE ACHIR SAID 10403 AIN BESSEM,36.2905006408691,3.67449998855591,10,Bouira,38,10,Bouira,4454
10501,10031.0,AIN EL HADJAR 10480,36.3406982421875,3.8092999458313,10,Bouira,38,10,Bouira,4454
10408,10045.0,TAGUEDITE 10350,36.0185012817383,3.9893000125885,10,Bouira,38,10,Bouira,4454
10204,10053.0,BENI HAMDOUNE 10196,36.407901763916,4.37449979782104,10,Bouira,38,10,Bouira,4454
10102,10046.0,ZEBOUDJA 10221,36.4418983459473,3.83680009841919,10,Bouira,38,10,Bouira,4454
10115,10110.0,110/1000/3000 HAI EZZITOUNE BOUIRA,36.4014015197754,3.89359998703003,10,Bouira,38,10,Bouira,4454
10302,10010.0,AOMAR CENTRE,36.49169921875,3.769700050354,10,Bouira,38,10,Bouira,4454
10506,10038.0,KHABBOUZIA 10441,36.3162994384766,3.60019993782043,10,Bouira,38,10,Bouira,4454
10220,10030.0,AHNIF 10130,36.3362007141113,4.26240015029907,10,Bouira,38,10,Bouira,4454
10510,10079.0,OULED-GUEMRA 10491,36.2902984619141,3.91919994354248,10,Bouira,38,10,Bouira,4454
10322,10070.0,LAHGUIA 10281,36.4758987426758,3.68650007247925,10,Bouira,38,10,Bouira,4454
10215,10089.0,TAGHZOUT 10170,36.4081993103027,3.958899974823,10,Bouira,38,10,Bouira,4454
10400,10004.0,AVENUE 1er NOVEMBRE SOUR EL GHOZLANE,36.1477012634277,3.68889999389648,10,Bouira,38,10,Bouira,4454
10206,10019.0,CHORFA CENTRE,36.359001159668,4.32310009002686,10,Bouira,38,10,Bouira,4454
10310,10072.0,M'CID-Z'BARBORA 10201,36.5564994812012,3.63899993896484,10,Bouira,38,10,Bouira,4454
10312,10082.0,OULED-TCHALABI 10211,36.5821990966797,3.51370000839233,10,Bouira,38,10,Bouira,4454
10305,10059.0,EL MADJEN LOTFI 10430,36.4664993286133,3.78489995002747,10,Bouira,38,10,Bouira,4454
10314,10047.0,ZOUABRIA 10241,36.4934005737305,3.57220005989075,10,Bouira,38,10,Bouira,4454
10410,10049.0,AIN TERZINE 10342,36.0968017578125,3.92580008506775,10,Bouira,38,10,Bouira,4454
10303,10016.0,BOUDERBALA ,36.5817985534668,3.5113000869751,10,Bouira,38,10,Bouira,4454
10309,10039.0,MAALA 10240,36.4931983947754,3.57209992408752,10,Bouira,38,10,Bouira,4454
10507,10075.0,OUED BERDI 10490,36.2555999755859,3.9375,10,Bouira,38,10,Bouira,4454
10202,10035.0,BAHALIL  10191,36.4225006103516,4.36719989776611,10,Bouira,38,10,Bouira,4454
10228,10015.0,BOUAKLANE CENTRE,36.3535995483398,4.26949977874756,10,Bouira,38,10,Bouira,4454
10226,10095.0,TOGHZA 10195 ,36.3650016784668,4.32600021362305,10,Bouira,38,10,Bouira,4454
10514,10067.0,HAMZA BOUGHERZOUNE VILLAGE AGRICOLE 10472,36.2050018310547,3.80920004844666,10,Bouira,38,10,Bouira,4454
10106,10091.0,THAMER VILLAGE AGRICOLE 10003  ,36.3334007263184,3.86089992523193,10,Bouira,38,10,Bouira,4454
10201,10033.0,AIN TURK 10120,36.3936004638672,3.82410001754761,10,Bouira,38,10,Bouira,4454
10219,10052.0,BENI HAMAD 10141,36.4101982116699,4.21199989318848,10,Bouira,38,10,Bouira,4454
10105,10061.0,ERRICH 10111,36.4444999694824,3.87220001220703,10,Bouira,38,10,Bouira,4454
10416,10106.0,GARE ROUTIERE SEG  10006,36.1342010498047,3.69379997253418,10,Bouira,38,10,Bouira,4454
10227,10041.0,RAFFOUR 10102,36.353099822998,4.28459978103638,10,Bouira,38,10,Bouira,4454
10114,10105.0, BOUIRA GARE ROUTIERE 10005,36.3680992126465,3.87140011787415,10,Bouira,38,10,Bouira,4454
10512,10074.0,MIHOUBI 10442,36.2681999206543,3.62299990653992,10,Bouira,38,10,Bouira,4454
10509,10044.0,SOUK EL KHEMIS 10420,36.3914985656738,3.63240003585815,10,Bouira,38,10,Bouira,4454
10113,10104.0,POLE UNIVERSITAIRE BOUIRA,36.3791007995605,3.87610006332397,10,Bouira,38,10,Bouira,4454
10320,10064.0,GUERGOUR 10202,36.58735925183874,3.568611254781117,10,Bouira,38,10,Bouira,4454
11101,11014.0,AMSEL,22.6166706085205,5.44999980926514,11,Tamanrasset,1,11,Tamanrasset,335563
11113,11035.0,DIR /REGIONAL GENDAR,22.7666702270508,5.51666688919067,11,Tamanrasset,1,11,Tamanrasset,335563
11105,11022.0,OUTOUL,22.8333301544189,5.33333301544189,11,Tamanrasset,1,11,Tamanrasset,335563
11107,11002.0,CITE IN KOUF,22.7666702270508,5.53333282470703,11,Tamanrasset,1,11,Tamanrasset,335563
11106,11028.0,6 EME REGION MILITAIRE,22.7333297729492,5.51666688919067,11,Tamanrasset,1,11,Tamanrasset,335563
11114,11026.0,GARE ROUTIERE,22.8166694641113,5.48333311080933,11,Tamanrasset,1,11,Tamanrasset,335563
11109,11027.0,UNIVERSITE TAMANRASSET,22.8799991607666,5.5,11,Tamanrasset,1,11,Tamanrasset,335563
11112,11040.0,GROUPEMENT-MILITAIRE OUTOUL TAMANRASSET,22.8666706085205,5.33333301544189,11,Tamanrasset,1,11,Tamanrasset,335563
11102,11009.0,CITE ASSOUROU,22.7833003997803,5.53329992294312,11,Tamanrasset,1,11,Tamanrasset,335563
11100,11000.0,CITE EL HOFRA,22.7833309173584,5.51666688919067,11,Tamanrasset,1,11,Tamanrasset,335563
11110,11025.0,CENTRE VILLE ,22.7833309173584,5.80000019073486,11,Tamanrasset,1,11,Tamanrasset,335563
12209,12055.0,VILLAGE TOUALBIA,35.5111312866211,8.21208763122559,12,Tébessa,23,12,Tébessa,13878
12100,12000.0,CITE DJEBEL  EL DJORF ,35.4257278442383,8.11285209655762,12,Tébessa,23,12,Tébessa,13878
12122,12071.0,AEROPORT CHEIKH LARBI TEBESSI,35.429012,8.123231,12,Tébessa,23,12,Tébessa,13878
12107,12028.0,CITE 414 LOGEMENT TEBESSA,35.4079513549805,8.10471057891846,12,Tébessa,23,12,Tébessa,13878
12415,12025.0,CITE  CENTRALE OUENZA,35.9531021118164,8.12241172790527,12,Tébessa,23,12,Tébessa,13878
12506,12053.0,VILLAGE THLIDJEN,35.118350982666,7.76853799819946,12,Tébessa,23,12,Tébessa,13878
12112,12007.0,Cité 600 logts TEBESSA,35.4204597473145,8.07547283172607,12,Tébessa,23,12,Tébessa,13878
12311,12010.0,CITE EL HOURIA BIR EL ATER,34.7596969604492,8.05059242248535,12,Tébessa,23,12,Tébessa,13878
12407,12003.0,Cité Ben Badis OUENZA,35.9521217346191,8.13229656219482,12,Tébessa,23,12,Tébessa,13878
12406,12017.0,CENTRE VILLE MORSOTT,35.6692543029785,8.00775814056396,12,Tébessa,23,12,Tébessa,13878
12113,12004.0,BOULVARD ELAMIR ABD ELKADER,35.4046592712402,8.11928844451904,12,Tébessa,23,12,Tébessa,13878
12402,12008.0,Centre-ville Ain Zerga,35.6483764648438,8.25893020629883,12,Tébessa,23,12,Tébessa,13878
12205,12016.0,CENTRE VILLE HAMMAMET,35.4484596252441,7.95350694656372,12,Tébessa,23,12,Tébessa,13878
12203,12014.0,CITE 54 LOG EL MA LABIOD,35.2085189819336,8.16938209533691,12,Tébessa,23,12,Tébessa,13878
12201,12019.0,CENTRE VILLE BEKKARIA,35.376594543457,8.24047470092773,12,Tébessa,23,12,Tébessa,13878
12200,12006.0,CENTRE VILLE EL KOUIF,35.4963684082031,8.31890964508057,12,Tébessa,23,12,Tébessa,13878
12116,12060.0,Boulevard Chadli ben djedid Tébessa,35.4274864196777,8.09327983856201,12,Tébessa,23,12,Tébessa,13878
12117,12061.0,CITE ADDL TEBESSA,35.394359588623,8.11105155944824,12,Tébessa,23,12,Tébessa,13878
12403,12012.0,Cité Chahid Guenez Hafnaoui Boukhadra,35.747631072998,8.03385734558105,12,Tébessa,23,12,Tébessa,13878
12306,12027.0,CENTRE VILLE OUM ALI,35.0142211914062,8.29928970336914,12,Tébessa,23,12,Tébessa,13878
12503,12046.0,VILLAGE GOURIGUEUR,35.4231758117676,7.59378290176392,12,Tébessa,23,12,Tébessa,13878
12404,12023.0,CENTRE VILLE EL MERIDJ,35.7936401367188,8.23097801208496,12,Tébessa,23,12,Tébessa,13878
12500,12002.0,Cité 1 er Nov. 1954 CHERIA,35.2707366943359,7.75125217437744,12,Tébessa,23,12,Tébessa,13878
12204,12031.0,VILLAGE AIN FEDHA,35.5554733276367,7.81739807128906,12,Tébessa,23,12,Tébessa,13878
12300,12001.0,Cité El Moudjahidine  BIR EL ATER,34.7437515258789,8.05618953704834,12,Tébessa,23,12,Tébessa,13878
12508,12021.0,Cité Cheriet Lazhar CHERIA,35.2630157470703,7.75321197509766,12,Tébessa,23,12,Tébessa,13878
12118,12063.0,RESIDENCE UNIVERSITAIRE EL WIAME,35.418041229248,8.08516025543213,12,Tébessa,23,12,Tébessa,13878
12409,12054.0,VILLAGE TORRICHA,35.6298332214355,8.05099773406982,12,Tébessa,23,12,Tébessa,13878
12307,12043.0,VILLAGE EL OGLA EL MALAH,34.9916954040527,7.9410400390625,12,Tébessa,23,12,Tébessa,13878
12312,12065.0,GARE ROUTIERE BIR EL ATER,34.770191192627,8.05910015106201,12,Tébessa,23,12,Tébessa,13878
12208,12039.0,VILLAGE BOULHEF DYR,35.4880981445312,8.07836723327637,12,Tébessa,23,12,Tébessa,13878
12212,12051.0,VILLAGE RAS EL AYOUN,35.5175933837891,8.29384803771973,12,Tébessa,23,12,Tébessa,13878
12211,12038.0,VILLAGE BOUCHEBKA,35.1749076843262,8.41580200195312,12,Tébessa,23,12,Tébessa,13878
12411,12050.0,VILLAGE OULED NACEUR,35.8029365539551,8.0784215927124,12,Tébessa,23,12,Tébessa,13878
12601,12042.0,VILLAGE EL MAZRAA,35.261402130127,7.57650709152222,12,Tébessa,23,12,Tébessa,13878
12108,12018.0,CITE   EZZOUHOUR TEBESSA,35.410327911377,8.13107013702393,12,Tébessa,23,12,Tébessa,13878
12505,12052.0,VILLAGE TAZBENT,35.3608665466309,7.88895511627197,12,Tébessa,23,12,Tébessa,13878
12504,12047.0,VILLAGE GUENTIS,34.9966659545898,8.05497741699219,12,Tébessa,23,12,Tébessa,13878
12301,12034.0,VILLAGE AIN ZEGUIEG,35.2552795410156,7.99889278411865,12,Tébessa,23,12,Tébessa,13878
12120,12066.0,GARE-ROUTIERE- Tebessa,35.4296417236328,8.04961967468262,12,Tébessa,23,12,Tébessa,13878
12310,12020.0,CITE EL IMRANE BIR EL ATER,34.7624092102051,8.05482482910156,12,Tébessa,23,12,Tébessa,13878
12510,12068.0,GARE-ROUTIERE - cheria,35.2575302124023,7.76304006576538,12,Tébessa,23,12,Tébessa,13878
12105,12022.0,CITE 1ER NOV TEBESSA,35.4216690063477,8.06674957275391,12,Tébessa,23,12,Tébessa,13878
12501,12011.0,CENTRE VILLE B.MOKKADEM,35.5716781616211,7.81046009063721,12,Tébessa,23,12,Tébessa,13878
12207,12036.0,VILLAGE BIR D'HEB,35.524959564209,7.93935489654541,12,Tébessa,23,12,Tébessa,13878
12309,12045.0,VILLAGE FOUM EL MATLEG,35.1230812072754,7.9513578414917,12,Tébessa,23,12,Tébessa,13878
12410,12040.0,VILLAGE DYR,35.5831565856934,8.17613697052002,12,Tébessa,23,12,Tébessa,13878
12417,12057.0,CITE 6 MAI OUENZA,35.9417037963867,8.13634300231934,12,Tébessa,23,12,Tébessa,13878
12416,12030.0,VILLAGE CHANIA GARE,35.8953819274902,8.03377246856689,12,Tébessa,23,12,Tébessa,13878
12302,12037.0,VILLAGE BIR EL OUESRA,34.9570808410645,8.20786285400391,12,Tébessa,23,12,Tébessa,13878
12509,12056.0,ROUTE  THLIDJEN CHERIA,35.2647857666016,7.74778318405151,12,Tébessa,23,12,Tébessa,13878
12115,12062.0,UNIVERSITE LARBI TEBESSI,35.4274864196777,8.05497741699219,12,Tébessa,23,12,Tébessa,13878
12419,12067.0,GARE-ROUTIERE ouenza,35.9362716674805,8.14871978759766,12,Tébessa,23,12,Tébessa,13878
12206,12048.0,VILLAGE KISSA,35.4745941162109,8.11163997650146,12,Tébessa,23,12,Tébessa,13878
12202,12041.0,VILLAGE EL HOUDJEBET,35.2930145263672,8.27893733978271,12,Tébessa,23,12,Tébessa,13878
12401,12033.0,VILLAGE AIN SIDI SALAH,35.9740715026855,8.20700836181641,12,Tébessa,23,12,Tébessa,13878
12405,12049.0,VILLAGE MESLOULA,35.8689117431641,7.83065986633301,12,Tébessa,23,12,Tébessa,13878
12400,12005.0,Cité 1 er NOV 1954 LAOUINET,35.8656997680664,7.88771295547485,12,Tébessa,23,12,Tébessa,13878
12109,12029.0,Cité 262 logts TEBESSA,35.4244651794434,8.10989475250244,12,Tébessa,23,12,Tébessa,13878
12119,12064.0,annexe universitaire,35.2522315979004,8.04296779632568,12,Tébessa,23,12,Tébessa,13878
12414,12026.0,CITE  EL  AMEL OUENZA ,35.9337882995605,8.17605495452881,12,Tébessa,23,12,Tébessa,13878
13210,13079.0,VILLAGE TERNY,34.79583,-1.35812,13,Tlemcen,29,13,Tlemcen,9018
13300,13006.0,RUE EMIR ABDELKADER 1ER NOVEMBRE 1954,35.2904288,-1.1388535,13,Tlemcen,29,13,Tlemcen,9018
13409,13044.0,RUE SIDI MEDJAHED,34.774805,-1.638731,13,Tlemcen,29,13,Tlemcen,9018
13114,13114.0,GARE ROUTIERE,34.8814289,-1.3049306083569774,13,Tlemcen,29,13,Tlemcen,9018
13605,13015.0,RUE 18 FEVRIER HONAINE,35.17577,-1.65514,13,Tlemcen,29,13,Tlemcen,9018
13224,13097.0,UNIVERSITE ABOU BAKR BELKAID,34.920304,-1.303009,13,Tlemcen,29,13,Tlemcen,9018
13213,13048.0,RUE INDEPENDANCE,34.838365,-1.726521,13,Tlemcen,29,13,Tlemcen,9018
13113,13112.0,"LOCALITE DE SIDI SAID,TLEMCEN",34.889955,-1.31417,13,Tlemcen,29,13,Tlemcen,9018
13111,13093.0,RUE BOUKLI HACENE DJILALI,34.877466,-1.310015,13,Tlemcen,29,13,Tlemcen,9018
13109,13103.0,UNIVERSITE ABOU BAKR BELKAID CITE KIFFANE,34.895329,-1.330204,13,Tlemcen,29,13,Tlemcen,9018
13616,13120.0,RUE COLONEL LOTFI REMCHI,34.883206,-1.315454,13,Tlemcen,29,13,Tlemcen,9018
13403,13026.0,HAI EL-BALADI BOUHALLOU,34.7786521911621,-1.5686844587326,13,Tlemcen,29,13,Tlemcen,9018
13604,13009.0,RUE 1ER NOVEMBRE 1954,35.304351,-1.382646,13,Tlemcen,29,13,Tlemcen,9018
13801,13086.0,BD KHELIFI MOHAMED,34.876091,-1.313818,13,Tlemcen,29,13,Tlemcen,9018
13222,13084.0,CITE LES JASMINS,36.74152305,3.0614524943296093,13,Tlemcen,29,13,Tlemcen,9018
14307,14060.0,RUE CHEBIL ABDELKADER,35.0903015136719,1.47669994831085,14,Tiaret,20,14,Tiaret,20051
14208,14020.0,ROUTE DE TISSEMESILT,36.198858,1.322528,14,Tiaret,20,14,Tiaret,20051
14515,14050.0,RUE PRINCIPALE,35.3520011901855,1.33000004291534,14,Tiaret,20,14,Tiaret,20051
14517,14080.0,"Aïn Kermes, daïra Aïn Kermes, RADP",34.897954,1.108023,14,Tiaret,20,14,Tiaret,20051
14402,14047.0,VILLAGE AGRICOLE .,35.2904014587402,1.88619995117188,14,Tiaret,20,14,Tiaret,20051
14311,14052.0,HAI EL JAMIL,34.8396987915039,1.54980003833771,14,Tiaret,20,14,Tiaret,20051
14117,14078.0, CENTRE UNIVERSITAIRE TIARET,35.202114,1.482585,14,Tiaret,20,14,Tiaret,20051
14401,14017.0,CITE ZIROUD YOUCEF,35.3546371459961,1.66906297206879,14,Tiaret,20,14,Tiaret,20051
14204,14043.0,RUE DES MARTYRS,35.456298828125,1.60071194171906,14,Tiaret,20,14,Tiaret,20051
14210,14004.0,RUE MOSTAPHA BENBOULAID,35.4286346435547,1.78473997116089,14,Tiaret,20,14,Tiaret,20051
14500,14001.0,CITE POLICIERE FRENDA,35.0617980957031,1.04589998722076,14,Tiaret,20,14,Tiaret,20051
14212,14025.0,RUE OMRISSI BELKACEM,35.255199432373,1.23370003700256,14,Tiaret,20,14,Tiaret,20051
14304,14013.0,RUE MANSOUR MED,35.898998260498,1.23860001564026,14,Tiaret,20,14,Tiaret,20051
14300,14003.0,BOULEVARD SI ABDELGHANI,35.1841173,1.5040629,14,Tiaret,20,14,Tiaret,20051
14215,14005.0,RUE CAPITAINE BOUCIF,35.3727144,1.3201111,14,Tiaret,20,14,Tiaret,20051
14404,14027.0,RUE EMIR ABDELKADER,35.2318000793457,1.63489997386932,14,Tiaret,20,14,Tiaret,20051
14106,14031.0,RUE CHADLI HABIB,35.3856010437012,1.31610000133514,14,Tiaret,20,14,Tiaret,20051
14110,14016.0,BD BOUABDELLI BOUABDELLAH,35.3713989257812,1.32152199745178,14,Tiaret,20,14,Tiaret,20051
14112,14006.0,CITE BELLE VUE TIARET,35.37103,1.31699,14,Tiaret,20,14,Tiaret,20051
14105,14036.0,HAI EL MANAR ,35.3450012207031,1.31889998912811,14,Tiaret,20,14,Tiaret,20051
14102,14075.0,CITE MARIE CURIE,35.3757019042969,1.31120002269745,14,Tiaret,20,14,Tiaret,20051
14202,14040.0,RUE DU 1ER NOVEMBRE ,35.3562507629395,1.50463199615479,14,Tiaret,20,14,Tiaret,20051
14412,14011.0,ROUTE DE TIARET,35.1919154,1.4867373,14,Tiaret,20,14,Tiaret,20051
14104,14035.0,CITE DES 500 LOGEMENTS,35.3521995544434,1.31700003147125,14,Tiaret,20,14,Tiaret,20051
15318,15165.0,AIT-SIDI-SAID,36.341178894043,4.18329620361328,15,Tizi Ouzou,48,15,Tizi Ouzou,2958
15529,15026.0,AIT IDIR,36.3025856018066,4.05138826370239,15,Tizi Ouzou,48,15,Tizi Ouzou,2958
15707,15031.0,BOUDJIMA CENTRE,36.4442901611328,4.09342288970947,15,Tizi Ouzou,48,15,Tizi Ouzou,2958
15536,15170.0,VILLAGE AIT OULHADJ,36.529899597168,4.07614707946777,15,Tizi Ouzou,48,15,Tizi Ouzou,2958
15802,15085.0,HOTEL  DE LA POSTE,36.3091888427734,4.12493801116943,15,Tizi Ouzou,48,15,Tizi Ouzou,2958
15607,15051.0,RUE BOUCHFIAA,36.4038505554199,4.12301111221313,15,Tizi Ouzou,48,15,Tizi Ouzou,2958
15406,15155.0,TIZI-N'TERGA,36.3911209106445,4.16584300994873,15,Tizi Ouzou,48,15,Tizi Ouzou,2958
15610,15055.0,AGOUNI BOURAGH,36.3995628356934,4.13186311721802,15,Tizi Ouzou,48,15,Tizi Ouzou,2958
15303,15061.0,AIT SAADA,36.314380645752,4.16518688201904,15,Tizi Ouzou,48,15,Tizi Ouzou,2958
15609,15147.0,TAOURIRT MOKRANE,36.3752937316895,4.11541557312012,15,Tizi Ouzou,48,15,Tizi Ouzou,2958
15208,15071.0,SOUK EL T'NINE,36.3541984558105,4.02724504470825,15,Tizi Ouzou,48,15,Tizi Ouzou,2958
15421,15044.0,SOUAMA CENTRE,36.63330078125,4.34999990463257,15,Tizi Ouzou,48,15,Tizi Ouzou,2958
15526,15050.0,TIZI NTLETA,36.3250007629395,4.31602716445923,15,Tizi Ouzou,48,15,Tizi Ouzou,2958
15306,15015.0,OUACIF CENTRE,36.3126907348633,4.12170791625977,15,Tizi Ouzou,48,15,Tizi Ouzou,2958
15309,15053.0,YATEFFANE,36.3393096923828,4.15185546875,15,Tizi Ouzou,48,15,Tizi Ouzou,2958
15605,15118.0,IGHIL BOUZROU,36.3933982849121,4.10566997528076,15,Tizi Ouzou,48,15,Tizi Ouzou,2958
15801,15063.0,AIT TOUDERT,36.52527782268657,4.205399837864139,15,Tizi Ouzou,48,15,Tizi Ouzou,2958
15517,15042.0,RUE NATIONAL N° 30,36.3239364624023,4.02798938751221,15,Tizi Ouzou,48,15,Tizi Ouzou,2958
16223,16195.0,LOCALITE DE DERGANA ,36.767275,3.26172,16,Alger,58,16,Alger,810
16810,16050.0,rue Boudjemaa Temim,36.7120475769043,2.99816203117371,16,Alger,58,16,Alger,810
16845,16184.0,CITE SIDI MENIF 02 ZERALDA,36.6947364807129,2.82567310333252,16,Alger,58,16,Alger,810
16811,16049.0,RUE DES FRERES MAHDI,36.7997016906738,3.24720001220703,16,Alger,58,16,Alger,810
16812,16119.0,CITE SOUALMIA,36.6475944519043,2.97151708602905,16,Alger,58,16,Alger,810
16814,16081.0,RUE BOUDJNAH ARAB ,36.6959915161133,2.97052597999573,16,Alger,58,16,Alger,810
16802,16178.0,BASE AERIENNE CHERAGA,36.776294708252,2.92744994163513,16,Alger,58,16,Alger,810
16855,16219.0,CITE 834 LOGTS SIDI SLIMANE KHRAICIA,36.6834182739258,2.98334693908691,16,Alger,58,16,Alger,810
16164,16176.0,COMMANDEMENT DE LA GENDARMERIE NATIONALE,36.7679061889648,2.92337799072266,16,Alger,58,16,Alger,810
16842,16179.0,RESIDENCE UNIVERSITAIRE 03 OULED FAYET,36.729663848877,2.94259095191956,16,Alger,58,16,Alger,810
16202,16079.0,UNIVERSITE HOUERI BOUMEDIENNE,36.453051,2.636806,16,Alger,58,16,Alger,810
16423,16180.0,BEN AKNOUN,36.7605323791504,3.01525807380676,16,Alger,58,16,Alger,810
16230,16223.0,ANNEXE APC CITE KAIDI BORDJ EL KIFFAN ,36.735642,3.198039,16,Alger,58,16,Alger,810
16214,16174.0,B P N° 05 ENPEI ROUIBA,36.791716,3.238041,16,Alger,58,16,Alger,810
16115,16022.0,01 RUE HAHAD ABDEREZAK,36.7848701477051,3.06204104423523,16,Alger,58,16,Alger,810
16834,16171.0,HAI BOUREGAA,36.7626304626465,2.8853440284729,16,Alger,58,16,Alger,810
16315,16105.0,HOPITAL CENTRAL MILITAIRE AIN NAADJA,36.719318,3.065341,16,Alger,58,16,Alger,810
16112,16067.0,114 RUE KRIM BELKACEM,36.7665710449219,3.04732990264893,16,Alger,58,16,Alger,810
16720,16170.0,MINISTERE-DES-AFFAIRES-ETRANGERES,36.735708,3.079449,16,Alger,58,16,Alger,810
16413,16073.0,RUE 11 DECEMBRE 1960,36.7654418945312,3.01456904411316,16,Alger,58,16,Alger,810
16853,16208.0,cite 602 logts les dunes chéraga,36.7787055969238,2.91356801986694,16,Alger,58,16,Alger,810
16854,16209.0,cyber parc RAHMANIA,36.6791610717773,2.89891791343689,16,Alger,58,16,Alger,810
16846,16185.0,OULED FAYET PLATEAU,36.728271484375,2.95677804946899,16,Alger,58,16,Alger,810
16847,16186.0,RUE TAKARLI ABDEL GHANI,36.7123985290527,2.99761009216309,16,Alger,58,16,Alger,810
16710,16099.0,ROUTE DE KOLEA ,36.6312446594238,2.94583702087402,16,Alger,58,16,Alger,810
16907,16017.0,"10, RUE COLONEL AMIROUCHE, ROUIBA",36.702756,3.025388,16,Alger,58,16,Alger,810
16152,16109.0,CITE 379 LOGTS BT 11 N 01,36.7849769592285,2.96580410003662,16,Alger,58,16,Alger,810
16905,16115.0,RUE PRINCIPALE EL MARSA,36.789051,3.053979,16,Alger,58,16,Alger,810
16709,16045.0,RUE BOUDELLA RAMDANE,36.6672019958496,3.04601693153381,16,Alger,58,16,Alger,810
16432,16242.0,CENTRE HOSPITALO UNIVERSITAIRE DE BENI MESSOUS,36.7798538208008,2.98098301887512,16,Alger,58,16,Alger,810
16856,16225.0,cité 1000 logts BELLE VUE AIN BENIAN,36.7874336242676,2.91686010360718,16,Alger,58,16,Alger,810
16723,16226.0,cité  OPGI3216 logts CHAIBIA OULED CHBEL,36.6257286071777,2.98970699310303,16,Alger,58,16,Alger,810
16703,16069.0,06 RUE AHCENE DJENKI,36.790612,3.060641,16,Alger,58,16,Alger,810
16800,16014.0,RUE MEZALI CHERIF BT PTT,36.7694396972656,2.90529894828796,16,Alger,58,16,Alger,810
16203,16024.0,"CITE 08 MAI 45 N°20 B,E,Z",36.7328147888184,3.18724608421326,16,Alger,58,16,Alger,810
16849,16192.0, 20 AOUT 1965,36.6958236694336,2.98026704788208,16,Alger,58,16,Alger,810
16805,16113.0,LOTISSEMENT AMARA 2,36.7640495300293,2.94440293312073,16,Alger,58,16,Alger,810
16820,16063.0, Rue1 ER NOVEMBRE,36.7130432128906,2.83560800552368,16,Alger,58,16,Alger,810
16850,16193.0,FACULTE DES SCIENCES ECONOMIQUES UNIVERSITE D'ALGER 03 DELY IBRAHIM ,36.7568130493164,2.98377990722656,16,Alger,58,16,Alger,810
16806,16107.0,VILLAGE AGRICOLE,36.7630043029785,2.92575097084045,16,Alger,58,16,Alger,810
16816,16124.0,RUE ALI BEN MAHBOUB,36.6696662902832,2.98381996154785,16,Alger,58,16,Alger,810
16808,16104.0,07 RUE DE LA MAIRIE EL ACHOUR,36.7123680114746,2.97538900375366,16,Alger,58,16,Alger,810
16809,16106.0,RUE BOUDJEMAA KHELIL,36.7419013977051,2.99593901634216,16,Alger,58,16,Alger,810
16426,16191.0,ITFC BEN AKNOUN,36.7485580444336,3.01321601867676,16,Alger,58,16,Alger,810
16721,16189.0,RAIS SIDI MOUSSA,36.613472,3.1230911,16,Alger,58,16,Alger,810
16821,16110.0,CITE 500 LOGEMENT ZERALDA ,36.7086753845215,2.84542798995972,16,Alger,58,16,Alger,810
16332,16240.0,ANNEXE APC CITE TOUILEB SIDI-MOUSSA,36.767081,3.052232,16,Alger,58,16,Alger,810
16725,16239.0,CITE ZOUAOUI SIDI-MOUSSA,36.64155,2.778635,16,Alger,58,16,Alger,810
16823,16018.0,99 RUE COLONNEL SI M'HAMED,36.7946853637695,2.90712690353394,16,Alger,58,16,Alger,810
16841,16160.0,ECOLE POLICE JUDICIAIRE,36.6946105957031,2.82499408721924,16,Alger,58,16,Alger,810
16123,16040.0, CITé CLAIRVAL ROSTOMIA  ,36.7705841064453,3.00844502449036,16,Alger,58,16,Alger,810
16216,16129.0,CITE FRERES ACHOURI DAR EL BEIDA,36.723765,3.212943,16,Alger,58,16,Alger,810
16217,16154.0,"CITE AADL EL MOUSALAHA B,E,Z 5 JUILLET",36.734078,2.993778,16,Alger,58,16,Alger,810
16207,16087.0,CITE DIPLOMATIQUE DERGANA,36.7749121,3.2624221588342097,16,Alger,58,16,Alger,810
16303,16027.0,BOULVARD BELARBI BARAKI,36.774736,3.060156,16,Alger,58,16,Alger,810
16118,16002.0,119 RUE DIDOUCHE MOURAD,36.763500213623,3.04690003395081,16,Alger,58,16,Alger,810
16321,16139.0,01 RUE MOHAMED BELARBI BARAKI,36.668986,3.094076,16,Alger,58,16,Alger,810
16119,16007.0,01 RUE LAHCENE MIMOUNI PLACE 1ER MAI,36.7599983215332,3.0566999912262,16,Alger,58,16,Alger,810
16815,16091.0,AVENUE MOHAMED BELHADJET,36.6774063110352,2.98325490951538,16,Alger,58,16,Alger,810
16436,16254.0,boulevard du 11 decembre 1960,36.761378,3.02472,16,Alger,58,16,Alger,810
16844,16181.0,CITE 1839 LOGTS AADL,36.7296295166016,3.00691199302673,16,Alger,58,16,Alger,810
16404,16032.0,RUE LAMARI Bouzareah,36.791015625,3.01937508583069,16,Alger,58,16,Alger,810
16206,16031.0,"10 RUE, OUAZENE MOHAMED B,E,K",36.712198,3.087854,16,Alger,58,16,Alger,810
16803,16084.0,BOUCHAOUI CENTRE,36.6652221679688,2.93621110916138,16,Alger,58,16,Alger,810
16851,16201.0,"CITE AADL DE LA NOUVELLE VILLE DE SIDI ABDELLAH,MAHALMA",36.679630279541,2.88049006462097,16,Alger,58,16,Alger,810
16852,16202.0,"LA CITE 1067 LOGEMENTS LPP DE SIDI ABDELLAH,MAHALMA",36.6804084777832,2.88627505302429,16,Alger,58,16,Alger,810
16807,16094.0,19 BOULVARD BOUCHAOUI,36.7436943054199,2.95007300376892,16,Alger,58,16,Alger,810
16863,16261.0,HOTEL MILITAIRE BOUCHAOUI,36.718685,3.05833,16,Alger,58,16,Alger,810
16728,16265.0,CITE 1680 LOGEMENTS BIRTOUTA ALGER,36.6439229,2.987988063277336,16,Alger,58,16,Alger,810
16817,16095.0,RUE COLONEL AMIROUCHE,36.692554473877,3.03089094161987,16,Alger,58,16,Alger,810
16826,16062.0,RUE BEN DADAY AHMED,36.7516593933105,2.89745903015137,16,Alger,58,16,Alger,810
16405,16043.0,CITE ABDELKADER GADOUCHE,36.6042633056641,2.98692393302917,16,Alger,58,16,Alger,810
16872,16273.0,COMMANDEMENT-DES-FORCES-NAVALES-ZERALDA,36.786673,3.065808,16,Alger,58,16,Alger,810
16406,16047.0,RUE DE LA POSTE,36.7508544921875,2.98159003257751,16,Alger,58,16,Alger,810
16182,16276.0,19 RUE DOCTEUR SAADANE ALGER,36.77292,3.056747,16,Alger,58,16,Alger,810
16824,16101.0,CITE  1208 LOGTS ,36.7947158813477,2.90716505050659,16,Alger,58,16,Alger,810
16833,16097.0,RUE MOHAMED SAID DJAOUT ,36.7071723937988,2.9223940372467,16,Alger,58,16,Alger,810
16843,16175.0,CITE AADL OULED FAYET,36.719425201416,2.9544689655304,16,Alger,58,16,Alger,810
16831,16126.0,RUE HAMIDI MOHAMED RAHMANIA,36.6583442687988,2.86429691314697,16,Alger,58,16,Alger,810
16825,16120.0,CITE 11 DECEMBRE ,36.6751670837402,2.88165903091431,16,Alger,58,16,Alger,810
16839,16148.0,CITE 300 LOGT COSIDER ROUTE DE SAOULA,36.7161407470703,3.01242995262146,16,Alger,58,16,Alger,810
16716,16146.0,CITE 193 LOGTS  BABA ALI,36.7634391784668,2.97592401504517,16,Alger,58,16,Alger,810
16127,16041.0,CITE BEAU CHERAYE,36.7806015014648,3.042799949646,16,Alger,58,16,Alger,810
16161,16150.0,"RUE N° 12 CITE LEVEILLEY , HUSSEIN DEY",36.728428,3.150313,16,Alger,58,16,Alger,810
16433,16243.0,CITE AADL 649 LOGTS  LOT 16 W 9 ( co1 co2),36.741717,2.953241,16,Alger,58,16,Alger,810
16421,16138.0,118 BD ALI KHODJA,36.769221,3.026757,16,Alger,58,16,Alger,810
16840,16149.0,CITE DJAADI SOUIDANIA,36.7018394470215,2.90949010848999,16,Alger,58,16,Alger,810
16801,16086.0,MOHAMED BOUDIAF 1,36.7602005004883,2.96291708946228,16,Alger,58,16,Alger,810
16419,16177.0,HOTEL MILITAIRE BENI MESSOUSS,36.7731056213379,2.99623894691467,16,Alger,58,16,Alger,810
16827,16098.0,RESIDENCE D'ETAT CLUB DES PINS,36.7688369750977,2.88508105278015,16,Alger,58,16,Alger,810
16832,16121.0,RUE BRAHIMI BOUKHARI,36.6805305480957,2.90615510940552,16,Alger,58,16,Alger,810
16412,16044.0,RUE BRAHIM HADJESS (ROUTE PRINCIPALE DE BENI MESSOUS),36.7819175720215,2.98209404945374,16,Alger,58,16,Alger,810
16409,16089.0,15 RUE  DES VALOIS,36.7605323791504,3.00876092910767,16,Alger,58,16,Alger,810
16160,16080.0,ECOLE SUPERIEUR DE POLICE,36.768253326416,3.01144504547119,16,Alger,58,16,Alger,810
16408,16028.0,"33, RUE MOSTAPHA KHALEF",36.7605323791504,3.01522588729858,16,Alger,58,16,Alger,810
16835,16128.0,LOT CHEHATTE RABEH,36.7262496948242,2.89002895355225,16,Alger,58,16,Alger,810
16830,16093.0,RUE MERZOUG MUSTAFA BEN ALI,36.756763458252,2.85721802711487,16,Alger,58,16,Alger,810
16209,16135.0,ANNEX APC B.E.K CITE FAIZI,36.784694,3.253846,16,Alger,58,16,Alger,810
16909,16123.0,MOHAMED DJAAFRI REGHAIA,36.7706,2.961844,16,Alger,58,16,Alger,810
16837,16134.0,"HAI NAAMANE EL AMRI,RAHMANIA",36.686279296875,2.92432999610901,16,Alger,58,16,Alger,810
16828,16114.0, VILLAGE AGRICOLE LA BRIDJA,36.7434158325195,2.87453389167786,16,Alger,58,16,Alger,810
16804,16125.0,LOTISSEMENT SIDI HASSEN,36.7715301513672,2.93675708770752,16,Alger,58,16,Alger,810
16420,16137.0,CITE 389 LOGTS BENI MESSOUS,36.7857894897461,2.96634006500244,16,Alger,58,16,Alger,810
16836,16133.0,HAI BRAHIMI MOHAMED SOUIDANIA,36.7197608947754,2.90425992012024,16,Alger,58,16,Alger,810
16428,16206.0,"ROUTE NATIONALE NUMERO 36 CHATEAUNEUF,EL BIAR",36.7605323791504,3.01321601867676,16,Alger,58,16,Alger,810
17403,17006.0,CENTRE  VILLE DAR CHIOUKH,34.89638,3.48543,17,Djelfa,16,17,Djelfa,32257
17102,17029.0,CITE ZAHAF  DJELFA,34.67833,3.263115,17,Djelfa,16,17,Djelfa,32257
17500,17003.0,CITE   1ER Novembre MESSAAD,34.15429,3.50309,17,Djelfa,16,17,Djelfa,32257
17531,17090.0,AIN EL IBEL,34.3550616,3.2238301,17,Djelfa,16,17,Djelfa,32257
17101,17028.0,CITE AIN CHIH  DJELFA ,34.679988,3.250024,17,Djelfa,16,17,Djelfa,32257
17518,17063.0,CENTRE VILLE SELMANA,34.17191,3.59976,17,Djelfa,16,17,Djelfa,32257
17410,17036.0,MOUILAH,34.7552272,3.4809357,17,Djelfa,16,17,Djelfa,32257
17401,17025.0, CENTRE VILLE   AIN MAABED,34.8,3.13333,17,Djelfa,16,17,Djelfa,32257
18217,18050.0,CITE AZIROU -ZIAMA MANSOURIAH,36.6621208190918,5.45192003250122,18,Jijel,49,18,Jijel,2397
18407,18004.0,RUE GUERFI  AMEUR,36.8008460998535,6.1582670211792,18,Jijel,49,18,Jijel,2397
18321,18058.0,CHEKFA-DJIMAR,36.8025856018066,5.94739580154419,18,Jijel,49,18,Jijel,2397
18424,18059.0,EL-MILIA-TARZOUST,36.7655715942383,6.23382902145386,18,Jijel,49,18,Jijel,2397
18310,18010.0,RUE NACER DERRADJI,36.7509498596191,5.84412002563477,18,Jijel,49,18,Jijel,2397
18108,18048.0,OULED BOUNAR,36.821159362793,5.72144985198975,18,Jijel,49,18,Jijel,2397
18423,18057.0,EL MERIDJA,36.7617416381836,6.26172494888306,18,Jijel,49,18,Jijel,2397
18215,18049.0,SELMA,36.6229209899902,5.65291976928711,18,Jijel,49,18,Jijel,2397
18316,18038.0,CITE DES MOUDJAHDINES,36.8006401062012,5.84236001968384,18,Jijel,49,18,Jijel,2397
18304,18027.0,CHAHANA,36.6794204711914,5.95768022537231,18,Jijel,49,18,Jijel,2397
18106,18011.0,RUE DES FRERES BOUKETTA,36.8100738525391,5.76310586929321,18,Jijel,49,18,Jijel,2397
18312,18037.0,S'BET,36.7335586547852,5.95207023620605,18,Jijel,49,18,Jijel,2397
18100,18000.0,RUE DE 1ER NOV,36.7541580200195,6.27583312988281,18,Jijel,49,18,Jijel,2397
18210,18032.0,ERRAGUENE,36.6076507568359,5.58298015594482,18,Jijel,49,18,Jijel,2397
18318,18019.0,RUE AMRA TAHAR,36.7710418701172,5.89600992202759,18,Jijel,49,18,Jijel,2397
18116,18067.0,ZONE URBAINE N°03 CITE 70 LOGTS JIJEL,36.754593,5.875785,18,Jijel,49,18,Jijel,2397
18308,18029.0,RUE AHMED H'BIBATNI,36.8065185546875,6.12608003616333,18,Jijel,49,18,Jijel,2397
18207,18005.0,BD FROND DE MER,36.773250579834,5.60977983474731,18,Jijel,49,18,Jijel,2397
18101,18013.0,RUE ZIGHOUD YOUCEF,36.8131294250488,5.77481985092163,18,Jijel,49,18,Jijel,2397
18313,18017.0,RUE RAHMANI TAHAR,36.8528518676758,6.04908990859985,18,Jijel,49,18,Jijel,2397
18414,18035.0,VSA MEHARKA,36.7476692199707,6.14428997039795,18,Jijel,49,18,Jijel,2397
18223,18039.0,LES AFTIS,36.7126197814941,5.55166912078857,18,Jijel,49,18,Jijel,2397
18421,18046.0,OULED RABAH,36.6002311706543,6.16665983200073,18,Jijel,49,18,Jijel,2397
18400,18001.0,PLACE  BOUNNAH  BELKACEM ,36.7521514892578,6.27398014068604,18,Jijel,49,18,Jijel,2397
18102,18014.0,ROUTE DE LA SOUMMAM,36.8217697143555,5.75488996505737,18,Jijel,49,18,Jijel,2397
18402,18024.0,KHEIRI-OUED-ADJOUL,36.8594703674316,6.41364002227783,18,Jijel,49,18,Jijel,2397
18322,18061.0,UNIVERSITE TASSOUST,36.80037,5.842973,18,Jijel,49,18,Jijel,2397
18419,18016.0,CITE AHMED DJELLIL,36.7207183837891,6.33483982086182,18,Jijel,49,18,Jijel,2397
18420,18018.0,RUE SAAD BOULAATALI,36.6402053833008,6.2746000289917,18,Jijel,49,18,Jijel,2397
18107,18034.0,CITE 18 FEVRIER,36.7633018493652,5.89966011047363,18,Jijel,49,18,Jijel,2397
18219,18043.0,BOUHENCHE BENI AHMED,36.7631988525391,5.77444982528687,18,Jijel,49,18,Jijel,2397
18317,18047.0,OUDJANA,36.599609375,5.89737987518311,18,Jijel,49,18,Jijel,2397
18109,18012.0,RUE DES FRERES BOUCHAIR,36.8081283569336,5.75650978088379,18,Jijel,49,18,Jijel,2397
18208,18031.0,RUE 08 MAI 1945,36.5791206359863,5.88429021835327,18,Jijel,49,18,Jijel,2397
18224,18054.0,EL GHERIANA,36.6933135986328,5.77351903915405,18,Jijel,49,18,Jijel,2397
18307,18028.0,DEKKARA,36.7404899597168,5.89024019241333,18,Jijel,49,18,Jijel,2397
18412,18045.0,GHEBALA,36.6286087036133,6.3894100189209,18,Jijel,49,18,Jijel,2397
18406,18026.0,BORDJ ALI,36.6836814880371,6.35873985290527,18,Jijel,49,18,Jijel,2397
18200,18006.0,RUE EMIR AEK,36.660530090332,5.79025983810425,18,Jijel,49,18,Jijel,2397
18221,18040.0,CITE ANDREU,36.7925109863281,5.66054010391235,18,Jijel,49,18,Jijel,2397
18320,18053.0,BENI-METRANE,36.7576522827148,5.92269706726074,18,Jijel,49,18,Jijel,2397
18111,18055.0,CITE 300 LOGTS BT24 HARRATEN,36.7951850891113,5.79811191558838,18,Jijel,49,18,Jijel,2397
18404,18008.0,BELGUIMOUZ,36.818359375,6.13161993026733,18,Jijel,49,18,Jijel,2397
18300,18002.0,RUE GHUEDIED AHMED,36.7687301635742,5.89759016036987,18,Jijel,49,18,Jijel,2397
18302,18041.0,BORDJ THAR,36.7474517822266,6.03174018859863,18,Jijel,49,18,Jijel,2397
18110,18033.0,CITE HARRATEN,36.8000907897949,5.80201005935669,18,Jijel,49,18,Jijel,2397
18309,18030.0,PLACE ACILA HOCINE,36.8247985839844,5.9594202041626,18,Jijel,49,18,Jijel,2397
18411,18051.0,SIDI REZZOUK,36.6368217468262,6.28696012496948,18,Jijel,49,18,Jijel,2397
18301,18022.0,BAZOUL,36.8140907287598,5.9086799621582,18,Jijel,49,18,Jijel,2397
18205,18025.0,BOUDIA BENI YADJIS,36.599609375,5.80682992935181,18,Jijel,49,18,Jijel,2397
18211,18015.0,RUE CHIKIROU MOUHAMED,36.7718124389648,5.81151437759399,18,Jijel,49,18,Jijel,2397
18311,18036.0,OULED ASKEUR,36.7722587585449,5.89555978775024,18,Jijel,49,18,Jijel,2397
18104,18052.0,BASE NAVALE JIJEL EL KALAA,36.8249130249023,5.76705503463745,18,Jijel,49,18,Jijel,2397
18405,18023.0,BELHADEF,36.7020111083984,6.10304021835327,18,Jijel,49,18,Jijel,2397
19108,19048.0,FERMATOU    SETIF,36.2276306152344,5.39463186264038,19,Sétif,33,19,Sétif,6550
19116,19095.0,CHOUF LAKDAD   SETIF,36.2097930908203,5.37643384933472,19,Sétif,33,19,Sétif,6550
19115,19014.0, RUE BELLA MOUSSA,36.190559387207,5.42490482330322,19,Sétif,33,19,Sétif,6550
19808,19105.0,GHEBOULA,36.4330787658691,4.92848682403564,19,Sétif,33,19,Sétif,6550
19702,19036.0,BAZER SAKHRA,36.0789985656738,5.61399984359741,19,Sétif,33,19,Sétif,6550
19205,19100.0,EL HAMMAM,36.0657997131348,5.24624586105347,19,Sétif,33,19,Sétif,6550
19509,19055.0,MAOUIA,36.3981056213379,5.69839811325073,19,Sétif,33,19,Sétif,6550
19323,19087.0,BIR DJEDID (TELLA),35.9232864379883,5.33474588394165,19,Sétif,33,19,Sétif,6550
19317,19071.0,AIN EL HAMRA,35.8124237060547,5.32228088378906,19,Sétif,33,19,Sétif,6550
19507,19094.0,CHEURFA,36.4058799743652,4.85692501068115,19,Sétif,33,19,Sétif,6550
19304,19040.0,BIR LABIED,36.0762901306152,5.46480274200439,19,Sétif,33,19,Sétif,6550
19203,19093.0,CHAABET CHEURFA,36.1830177307129,5.31143522262573,19,Sétif,33,19,Sétif,6550
19901,19092.0,BOUTALEB,35.6920776367188,5.24755191802979,19,Sétif,33,19,Sétif,6550
19206,19047.0,EL OURICIA,36.2835998535156,5.40956020355225,19,Sétif,33,19,Sétif,6550
19807,19083.0,BENI DJEMATI,36.4687423706055,4.96106481552124,19,Sétif,33,19,Sétif,6550
19209,19111.0,MAHOUAN,36.26416015625,5.34552431106567,19,Sétif,33,19,Sétif,6550
19518,19058.0,O.ADDOUAN,36.3441047668457,5.46729612350464,19,Sétif,33,19,Sétif,6550
19502,19078.0,AKRIF BOURDIM,36.349723815918,5.03125,19,Sétif,33,19,Sétif,6550
19610,19077.0,AIT TIZI,36.5531539916992,5.13278293609619,19,Sétif,33,19,Sétif,6550
19207,19102.0,FAUCIGNY,36.2551078796387,5.26630020141602,19,Sétif,33,19,Sétif,6550
19202,19091.0,BOUIRA,36.2159843444824,5.28019857406616,19,Sétif,33,19,Sétif,6550
19608,19085.0,BENI KHELLAD,36.5331954956055,5.06377267837524,19,Sétif,33,19,Sétif,6550
19213,19079.0,BATHA,36.3545417785645,5.62082529067993,19,Sétif,33,19,Sétif,6550
19720,19004.0,RUE   1/11/54  EL EULMA,36.1519966125488,5.68653774261475,19,Sétif,33,19,Sétif,6550
19713,19059.0,OUM-LADJOUL,35.9327011108398,5.89605712890625,19,Sétif,33,19,Sétif,6550
19412,19117.0,OULED AYAD,36.3294639587402,5.01499509811401,19,Sétif,33,19,Sétif,6550
19809,19081.0,BENI AFIF,36.4628982543945,4.9065375328064,19,Sétif,33,19,Sétif,6550
19123,19134.0,500 AADL BT 14-AIN-MOUS SETIF,36.1970977783203,5.45154809951782,19,Sétif,33,19,Sétif,6550
19513,19068.0,TIZI NâBECHAR,36.4306335449219,5.36051177978516,19,Sétif,33,19,Sétif,6550
19710,19101.0,EL MERDJA,36.1969032287598,5.41508722305298,19,Sétif,33,19,Sétif,6550
19719,19133.0,EL EULMA THABET BOUZID,36.1456871032715,5.70364570617676,19,Sétif,33,19,Sétif,6550
19102,19062.0,LOT N°20 BELAIR,36.2004013061523,5.40268516540527,19,Sétif,33,19,Sétif,6550
19105,19034.0,RUE KARMA KADOUR,36.1861839294434,5.43042898178101,19,Sétif,33,19,Sétif,6550
19402,19037.0,BENI HOCINE,36.2723007202148,5.05214214324951,19,Sétif,33,19,Sétif,6550
19312,19120.0,OULED SABER,36.1614570617676,5.56144142150879,19,Sétif,33,19,Sétif,6550
19708,19097.0,DJERMANE,36.1528282165527,5.75565719604492,19,Sétif,33,19,Sétif,6550
19604,19057.0,OUED SEBT,36.3798828125,4.98834848403931,19,Sétif,33,19,Sétif,6550
19714,19123.0,SMARA,36.1603775024414,5.6315221786499,19,Sétif,33,19,Sétif,6550
19216,19144.0,CITE 1500 LOGTS BT G4,36.2109489440918,5.3263692855835,19,Sétif,33,19,Sétif,6550
19701,19135.0,EL EULMA 19 JUIN,36.1613960266113,5.68623161315918,19,Sétif,33,19,Sétif,6550
19118,19137.0,UNIVERSITE EL BAZ SETIF,36.1961364746094,5.3597297668457,19,Sétif,33,19,Sétif,6550
19512,19041.0,DEHAMCHA,36.383674621582,5.59305000305176,19,Sétif,33,19,Sétif,6550
19325,19136.0,SETIF-AIN-ROMANE,36.1794242858887,5.50087022781372,19,Sétif,33,19,Sétif,6550
19111,19138.0,SETIF-UNIVERSITE,36.1951637268066,5.38501691818237,19,Sétif,33,19,Sétif,6550
19717,19116.0,O A BEN NACER,36.293342590332,5.52084350585938,19,Sétif,33,19,Sétif,6550
19516,19053.0,EL KHERBA,36.4660491943359,5.67140769958496,19,Sétif,33,19,Sétif,6550
19520,19139.0,"RUE MARTYR SIARI KHELIFA A AIN TOUILA ,SETIF",36.3541526794434,5.51318120956421,19,Sétif,33,19,Sétif,6550
19410,19108.0,KORDJANA,36.3375701904297,4.94821739196777,19,Sétif,33,19,Sétif,6550
19401,19019.0,AIN ROUA,36.3336906433105,5.18291664123535,19,Sétif,33,19,Sétif,6550
19407,19028.0,MAOKLANE,36.3974075317383,5.07775402069092,19,Sétif,33,19,Sétif,6550
19124,19140.0,UNIVERSITE-MOHAMED-LAMINE-DEBAGHINE-2,36.2153816223145,5.44625186920166,19,Sétif,33,19,Sétif,6550
19405,19026.0,GUENZET,36.3252220153809,4.83822298049927,19,Sétif,33,19,Sétif,6550
19103,19063.0,CITE 1000 LOGTS SETIF,36.1771049499512,5.40591621398926,19,Sétif,33,19,Sétif,6550
19715,19067.0,TAYA,36.0513916015625,5.47778129577637,19,Sétif,33,19,Sétif,6550
19107,19098.0,AIN ARNAT,36.2071113586426,5.32545614242554,19,Sétif,33,19,Sétif,6550
19501,19033.0,AIN SEBT,36.4851837158203,5.71217203140259,19,Sétif,33,19,Sétif,6550
19503,19009.0,RUE DE L' A L N   ,36.3881645202637,5.41035890579224,19,Sétif,33,19,Sétif,6550
19505,19010.0,BENI AZIZ,36.5589828491211,5.57354259490967,19,Sétif,33,19,Sétif,6550
19122,19131.0,CITE EL HIDHAB  SETIF,36.2054824829102,5.43171882629395,19,Sétif,33,19,Sétif,6550
19904,19132.0,CITE  CHIBI A AIN AZEL,35.8164863586426,5.51306104660034,19,Sétif,33,19,Sétif,6550
19519,19130.0,BAHBAHA,36.4893608093262,5.53375101089478,19,Sétif,33,19,Sétif,6550
19510,19020.0,BABOR,36.3438491821289,5.48761224746704,19,Sétif,33,19,Sétif,6550
19327,19042.0,DRAA  EL MIAD,35.9551773071289,5.30072546005249,19,Sétif,33,19,Sétif,6550
19722,19128.0,CHIRHOUM,36.2726516723633,5.49773979187012,19,Sétif,33,19,Sétif,6550
19601,19072.0,AIN MARGOUM,36.4145545959473,5.12626886367798,19,Sétif,33,19,Sétif,6550
19303,19074.0,AIN REMADA,36.0235939025879,5.59444046020508,19,Sétif,33,19,Sétif,6550
19311,19110.0,MAAFEUR,35.8578491210938,5.36639642715454,19,Sétif,33,19,Sétif,6550
19104,19065.0,RUE KASEM KHALED,36.1959991455078,5.41950082778931,19,Sétif,33,19,Sétif,6550
19511,19066.0,SOKHNA,35.978343963623,5.80840396881104,19,Sétif,33,19,Sétif,6550
19101,19006.0,RUE FRERE MESLEM SETIF,36.1879615783691,5.40809202194214,19,Sétif,33,19,Sétif,6550
19100,19000.0,RUE  01/11/1954  SETIF,36.1892471313477,5.41138172149658,19,Sétif,33,19,Sétif,6550
19302,19018.0,AIN LAHDJAR,35.9373893737793,5.53989410400391,19,Sétif,33,19,Sétif,6550
19711,19046.0,EL OULDJA,36.0453109741211,5.90347909927368,19,Sétif,33,19,Sétif,6550
19500,19008.0, RUE 1ER NOV 54   ,36.3658180236816,5.50637102127075,19,Sétif,33,19,Sétif,6550
19712,19049.0,RUE MAATOUG AHMED EL EULMA,36.1578636169434,5.70695018768311,19,Sétif,33,19,Sétif,6550
19716,19125.0,TACHOUDA,36.2651634216309,5.7379298210144,19,Sétif,33,19,Sétif,6550
19300,19002.0,RUE KANOUNI ATHMANE ,35.9247665405273,5.29580307006836,19,Sétif,33,19,Sétif,6550
19320,19121.0,OULED SI AHMED,35.9819602966309,5.08898115158081,19,Sétif,33,19,Sétif,6550
19400,19003.0,RUE ALLAOUA EL AMRI  ,36.3328895568848,5.08699798583984,19,Sétif,33,19,Sétif,6550
19314,19060.0,RASFA,35.7791976928711,5.24755191802979,19,Sétif,33,19,Sétif,6550
19208,19107.0,KHALFOUN,36.1725616455078,5.33943033218384,19,Sétif,33,19,Sétif,6550
19214,19142.0,ECOLE DE L'AVIATION MILITAIRE ,36.1099853515625,5.33930492401123,19,Sétif,33,19,Sétif,6550
19315,19061.0,RAS ISLY,35.7632637023926,5.20709562301636,19,Sétif,33,19,Sétif,6550
19313,19030.0,O.TEBBEN,35.9172210693359,5.29575395584106,19,Sétif,33,19,Sétif,6550
19521,19147.0,CITE BARKET AMOR  AMOUCHA,36.3757705688477,5.41523599624634,19,Sétif,33,19,Sétif,6550
19330,19149.0,CITE 19 MARS  SALEH BEY,35.8593826293945,5.29699325561523,19,Sétif,33,19,Sétif,6550
19504,19088.0,BOUAMRANE,36.3987121582031,5.43912744522095,19,Sétif,33,19,Sétif,6550
19310,19054.0,KSAR EL ABTAL,35.9870872497559,5.21622848510742,19,Sétif,33,19,Sétif,6550
19204,19099.0,EL HACHICHIA,36.1469993591309,5.32320594787598,19,Sétif,33,19,Sétif,6550
19705,19023.0,BENI FOUDA,36.2048187255859,5.44508695602417,19,Sétif,33,19,Sétif,6550
19905,19141.0,RUE BERKENE SAID  AIN AZEL,35.8163681030273,5.51212978363037,19,Sétif,33,19,Sétif,6550
19211,19073.0,AIN MESSAOUD,36.2155265808105,5.27869510650635,19,Sétif,33,19,Sétif,6550
19607,19124.0,SOUK EL HAD,36.5004768371582,4.99445629119873,19,Sétif,33,19,Sétif,6550
19309,19015.0,ADDAOUA,35.6780281066895,5.36899995803833,19,Sétif,33,19,Sétif,6550
19130,19153.0,CITE EL BEZ SETIF,36.19112,5.41373,19,Sétif,33,19,Sétif,6550
19307,19027.0,GUIDJEL,36.1189079284668,5.53086376190186,19,Sétif,33,19,Sétif,6550
19306,19050.0,GUELLAL,36.0363006591797,5.3311653137207,19,Sétif,33,19,Sétif,6550
19508,19118.0,OULED MAIZA,36.3820915222168,5.64826822280884,19,Sétif,33,19,Sétif,6550
19301,19007.0,RUE DAOUD SALAH,35.8171119689941,5.51151084899902,19,Sétif,33,19,Sétif,6550
19305,19089.0,BOUDJELIKH,35.6515769958496,5.25473260879517,19,Sétif,33,19,Sétif,6550
19611,19076.0,A NAOUAL M'ZADA,36.5441551208496,5.07645606994629,19,Sétif,33,19,Sétif,6550
19319,19119.0,OULED M'HALA,35.9124717712402,5.16500282287598,19,Sétif,33,19,Sétif,6550
19902,19127.0,Z'RAIA,35.7971382141113,5.67975997924805,19,Sétif,33,19,Sétif,6550
19326,19114.0,MERZEGHLEL,35.841667175293,5.53593778610229,19,Sétif,33,19,Sétif,6550
19718,19122.0,SIDI SALAH,36.1828193664551,5.61495494842529,19,Sétif,33,19,Sétif,6550
19514,19109.0,LAOUAMEUR,36.3554763793945,5.39590454101562,19,Sétif,33,19,Sétif,6550
19322,19113.0,MELLOUL,36.0021514892578,5.37739515304565,19,Sétif,33,19,Sétif,6550
19210,19056.0,MEZLOUG,36.2156677246094,5.27881813049316,19,Sétif,33,19,Sétif,6550
19318,19039.0,BIR HADDADA,35.9371719360352,5.5402717590332,19,Sétif,33,19,Sétif,6550
19600,19012.0,BOUANDAS,36.4967651367188,5.10301780700684,19,Sétif,33,19,Sétif,6550
19515,19115.0,OUED EL BERD,36.4957580566406,5.41663789749146,19,Sétif,33,19,Sétif,6550
19316,19013.0,RUE NATIONALE ,35.851375579834,5.28889513015747,19,Sétif,33,19,Sétif,6550
19126,19146.0,CITE 3700 LOGTS SETIF,36.180855,5.451973,19,Sétif,33,19,Sétif,6550
19721,19005.0,426 LOTS  EL EULMA,36.1558113098145,5.68178701400757,19,Sétif,33,19,Sétif,6550
19106,19075.0,AIN TRICK  SETIF,36.1423530578613,5.44371223449707,19,Sétif,33,19,Sétif,6550
19406,19051.0,H.GUERGOUR,36.3231506347656,5.05510187149048,19,Sétif,33,19,Sétif,6550
19609,19070.0,AIN DOKKAR,36.4992828369141,5.03958606719971,19,Sétif,33,19,Sétif,6550
19703,19021.0,BEIDA BORDJ,35.8940010070801,5.66599988937378,19,Sétif,33,19,Sétif,6550
19704,19022.0,BELLAA,36.1316795349121,5.83648109436035,19,Sétif,33,19,Sétif,6550
19201,19016.0,AIN  ABESSA,36.2962608337402,5.29388380050659,19,Sétif,33,19,Sétif,6550
19706,19024.0,BIR EL ARCH,36.1316795349121,5.83648204803467,19,Sétif,33,19,Sétif,6550
19707,19025.0,DJEMILA,36.3155403137207,5.73640489578247,19,Sétif,33,19,Sétif,6550
19606,19069.0,TIZI N'BRAHM,36.4622268676758,5.09109020233154,19,Sétif,33,19,Sétif,6550
19700,19001.0,RUE DE LA REVOLITION ,36.148796081543,5.69171667098999,19,Sétif,33,19,Sétif,6550
20223,20046.0,DOUAR MORGHAD 20046,34.5487670898438,0.259661972522736,20,Saïda,32,20,Saïda,6765
20115,20050.0,CITE SALEM 2 SAIDA 20050,34.8361968994141,0.174462005496025,20,Saïda,32,20,Saïda,6765
20116,20054.0,SAIDA,34.8302067,0.1502692,20,Saïda,32,20,Saïda,6765
20213,20007.0,CITE FILAH TAYEB SIDI BOUBEKEUR 20007,35.0262107849121,0.101110801100731,20,Saïda,32,20,Saïda,6765
20302,20002.0,RUE DES MARTYRES OUELD BRAHIM 20002,34.5643882751465,0.192350000143051,20,Saïda,32,20,Saïda,6765
20114,20044.0,UNIVERSITE DR MOULAY TAHAR  20044,34.8599243164062,0.150747001171112,20,Saïda,32,20,Saïda,6765
20100,20000.0,BOULEVARD DE LA  REVOLUTION SAIDA 20000,34.8325576782227,0.150061994791031,20,Saïda,32,20,Saïda,6765
20226,20049.0,SIDI BOUBEKEUR GARE - SIDI BOUBEKEUR 20049,35.0393180847168,0.0616853013634682,20,Saïda,32,20,Saïda,6765
20306,20012.0,KHALFALLAH VILLAGE 20012,34.5488395690918,0.259616136550903,20,Saïda,32,20,Saïda,6765
20200,20001.0,CITE DES MARETYRE AIN HADJAR 20001,34.7585945129395,0.145169109106064,20,Saïda,32,20,Saïda,6765
20309,20003.0,RUE DE L'INDEPENDENCE EL HASSASNA  20003,34.7898750305176,0.152224004268646,20,Saïda,32,20,Saïda,6765
20313,20051.0,BALLOUL-GARE-ROUTIERE,34.2587127685547,0.102654002606869,20,Saïda,32,20,Saïda,6765
20208,20029.0,RUE DALIL KHAYRET MOHAMED AIN SULTANE 20029,34.8981590270996,0.146326497197151,20,Saïda,32,20,Saïda,6765
20203,20041.0,DOUAR OULED FALETTE 20041,34.7113838195801,0.16395103931427,20,Saïda,32,20,Saïda,6765
20106,20006.0,cite ENNASR Saida 20006,34.8560600280762,0.149211004376411,20,Saïda,32,20,Saïda,6765
20109,20042.0,CITE SOUMMAM SAIDA 20042,34.8485145568848,0.146621003746986,20,Saïda,32,20,Saïda,6765
20219,20040.0,DOUAR SIDI AHMED 20040,35.0703010559082,0.0161773003637791,20,Saïda,32,20,Saïda,6765
20201,20020.0,DOUAR AIN TEGHAT 20020,34.8750114440918,0.15127369761467,20,Saïda,32,20,Saïda,6765
20105,20015.0,Cite CDT MEJDOUB SAIDA 20015,34.8204116821289,0.153059005737305,20,Saïda,32,20,Saïda,6765
20104,20010.0,Cite Boukhors saida 20010,34.1548805236816,0.152547001838684,20,Saïda,32,20,Saïda,6765
20102,20018.0,Cite Khater Abdelkader Saida 20018,34.1236534118652,0.152365401387215,20,Saïda,32,20,Saïda,6765
20202,20021.0,DOUAR SIDI AISSA 20021,34.9462356567383,0.170715093612671,20,Saïda,32,20,Saïda,6765
20101,20017.0,Cite daoudi moussa Saida 20017 ,34.8311309814453,0.139503002166748,20,Saïda,32,20,Saïda,6765
20225,20048.0,DOUAR OUM-DOUD 20048,34.5053749084473,0.147381767630577,20,Saïda,32,20,Saïda,6765
20212,20019.0,SIDI AMAR VILLAGE 20019,34.94080700541839,0.1843941783392222,20,Saïda,32,20,Saïda,6765
20211,20004.0,RUE AMIR ABDELKADER REBAHIA 20004,34.8755989074707,0.152278199791908,20,Saïda,32,20,Saïda,6765
20215,20011.0,HAMMAM RABI VILLAGE 20011,34.9300231933594,0.182132795453072,20,Saïda,32,20,Saïda,6765
20220,20032.0,SIDI MAAMAR VILLAGE 20032,34.7927894592285,0.14419136941433,20,Saïda,32,20,Saïda,6765
20110,20016.0,Cite Erriadh Saida 20016 ,34.7418518066406,0.156987398862839,20,Saïda,32,20,Saïda,6765
20112,20043.0,CITE 05 JUILLET SAIDA 20043,34.369873046875,0.152648702263832,20,Saïda,32,20,Saïda,6765
20307,20027.0,KHOURICHFA VILLAGE 20027,34.2589683532715,0.163650006055832,20,Saïda,32,20,Saïda,6765
20209,20014.0,RUE 1ER NOVEMBRE MOULAY LARBI  20014,34.5053634643555,0.147373557090759,20,Saïda,32,20,Saïda,6765
20113,20005.0,Cite Belhadi benyamina 20005,34.8430557250977,0.150998994708061,20,Saïda,32,20,Saïda,6765
21512,21020.0,OUM-TOUB,36.6894493103027,6.57311105728149,21,Skikda,40,21,Skikda,4118
21505,21054.0,BOUHALBES,36.7083854675293,6.76196384429932,21,Skikda,40,21,Skikda,4118
21507,21056.0,DJEBEL-STAIHA,36.7362289428711,6.78758192062378,21,Skikda,40,21,Skikda,4118
21207,21051.0,AIN-ZOUIT,36.891185760498,6.78934526443481,21,Skikda,40,21,Skikda,4118
21201,21033.0,BENI-BECHIR,36.776123046875,6.93724918365479,21,Skikda,40,21,Skikda,4118
21210,21068.0,OUED-KSOB,36.8821868896484,7.03159141540527,21,Skikda,40,21,Skikda,4118
21409,21066.0,MENZEL-EL-ABTAL,36.7423515319824,7.15623664855957,21,Skikda,40,21,Skikda,4118
21106,21024.0,SKIKDA 20 AOUT 1955,36.8698616027832,6.91347980499268,21,Skikda,40,21,Skikda,4118
21316,21005.0,TAMALOUS,36.8381500244141,6.63833713531494,21,Skikda,40,21,Skikda,4118
21317,21028.0,ZITOUNA,36.9887924194336,6.46207427978516,21,Skikda,40,21,Skikda,4118
21102,21025.0,SKIKDA 8 MAI 1945,36.8658180236816,6.89962863922119,21,Skikda,40,21,Skikda,4118
21208,21039.0,HAMROUCHE-HAMMOUDI,36.8470039367676,6.95567607879639,21,Skikda,40,21,Skikda,4118
21319,21074.0,TAHOUNA,36.8036613464355,6.51473665237427,21,Skikda,40,21,Skikda,4118
21300,21002.0,COLLO,37.0069732666016,6.56903028488159,21,Skikda,40,21,Skikda,4118
21518,21075.0,TOUMIETTES,36.615837097168,6.80964612960815,21,Skikda,40,21,Skikda,4118
21310,21083.0,LA LOCALITE DE EL HADJERIA,36.9593238830566,6.60567998886108,21,Skikda,40,21,Skikda,4118
21303,21007.0,AIN-KECHERA,36.7447319030762,6.42966270446777,21,Skikda,40,21,Skikda,4118
21304,21052.0,BIN-EL-OUIDEN,36.8100280761719,6.56639623641968,21,Skikda,40,21,Skikda,4118
21306,21012.0,BOU-NOGHRA,36.9955940246582,6.34029150009155,21,Skikda,40,21,Skikda,4118
21307,21029.0,AHMED-SALEM,36.8762664794922,6.60937404632568,21,Skikda,40,21,Skikda,4118
21513,21044.0,SAID-BOUSBAA,36.6301193237305,6.86373519897461,21,Skikda,40,21,Skikda,4118
21525,21014.0,EL-HARROUCH-EL-MELHA,36.6595573425293,6.83841514587402,21,Skikda,40,21,Skikda,4118
21101,21026.0,SKIKDA-DIDOUCHE-MOURAD,36.8823127746582,6.90634202957153,21,Skikda,40,21,Skikda,4118
21302,21073.0,SEBTI-MAAMECHE,36.9234619140625,6.52590799331665,21,Skikda,40,21,Skikda,4118
21309,21016.0,EL-OULOUDJ,36.9166679382324,6.48333311080933,21,Skikda,40,21,Skikda,4118
21301,21030.0,AIN-AGHBEL,36.9698486328125,6.52579307556152,21,Skikda,40,21,Skikda,4118
21105,21045.0,SKIKDA-BEN-M'HIDI,36.8870620727539,6.9834098815918,21,Skikda,40,21,Skikda,4118
21330,21013.0,COLLO-AIN-ZIDA,37.007007598877,6.55926704406738,21,Skikda,40,21,Skikda,4118
21311,21062.0,KANOUA,37.0376739501953,6.40374183654785,21,Skikda,40,21,Skikda,4118
21315,21071.0,RAMOUL,36.9696998596191,6.54799604415894,21,Skikda,40,21,Skikda,4118
21410,21041.0,MENZEL-BENDICHE,36.7158088684082,7.07882165908813,21,Skikda,40,21,Skikda,4118
21107,21078.0,UNIVERSITE DE SKIKDA,36.8474388122559,6.89143753051758,21,Skikda,40,21,Skikda,4118
21103,21046.0,STORA,36.9029083251953,6.87806367874146,21,Skikda,40,21,Skikda,4118
21211,21076.0,OUED-RIGHA-BAHRI,36.9039878845215,7.04957485198975,21,Skikda,40,21,Skikda,4118
21511,21043.0,OULED-HABEBA,36.5163764953613,6.97240591049194,21,Skikda,40,21,Skikda,4118
21110,21027.0,SKIKDA-FRERES-SAADI,36.8683052062988,6.9834098815918,21,Skikda,40,21,Skikda,4118
21321,21048.0,AIN-CHERAIA,36.823974609375,6.71032619476318,21,Skikda,40,21,Skikda,4118
21328,21070.0,RAKOUBA,36.9044761657715,6.2925009727478,21,Skikda,40,21,Skikda,4118
21405,21037.0,DJENDEL-SAADI-MOHAMED,36.7806282043457,7.17144918441772,21,Skikda,40,21,Skikda,4118
21510,21017.0,EMJEZ-ED-CHICHE,36.7048988342285,6.80474281311035,21,Skikda,40,21,Skikda,4118
21402,21009.0,BEKKOUCHE-LAKHDAR,36.6990928649902,7.30605840682983,21,Skikda,40,21,Skikda,4118
21524,21069.0,OUED-KSOB-V.S.A,36.8777275085449,7.01068878173828,21,Skikda,40,21,Skikda,4118
21401,21049.0,AIN-NECHEMA,36.8311958312988,7.27211570739746,21,Skikda,40,21,Skikda,4118
21313,21040.0,MELLAB,36.9321250915527,6.47933721542358,21,Skikda,40,21,Skikda,4118
21318,21061.0,HADJAR-MEFROUCH,36.8458251953125,6.44387054443359,21,Skikda,40,21,Skikda,4118
21412,21067.0,OUED-EL-KEBIR,36.7546157836914,7.28598308563232,21,Skikda,40,21,Skikda,4118
21602,21059.0,EL-OULDJA-BOULBALOUT,37.0229721069336,6.34080648422241,21,Skikda,40,21,Skikda,4118
21100,21000.0,AVENUE ZIGHOUD YOUCEF,36.8847274780273,6.90257883071899,21,Skikda,40,21,Skikda,4118
21408,21060.0,GUERBES,36.8796348571777,7.19047594070435,21,Skikda,40,21,Skikda,4118
21414,21072.0,RAS-EL-MA,36.6960525512695,7.01026344299316,21,Skikda,40,21,Skikda,4118
21205,21038.0,HAMADI-KROUMA,36.8442802429199,6.93198823928833,21,Skikda,40,21,Skikda,4118
21308,21036.0,CHERAIA,37.0023307800293,6.51297235488892,21,Skikda,40,21,Skikda,4118
21314,21055.0,DEMNIA,36.901668548584,6.65138912200928,21,Skikda,40,21,Skikda,4118
21601,21050.0,AIN-TABIA,36.7972030639648,6.62725448608398,21,Skikda,40,21,Skikda,4118
21416,21064.0,LA-ZAOUIA,36.8741111755371,7.34628820419312,21,Skikda,40,21,Skikda,4118
21419,21080.0,EL-HAMMA,36.7908325195312,7.28048658370972,21,Skikda,40,21,Skikda,4118
21111,21082.0,"CITE MARDJ EDDIB 218 LOGEMENTS BAT 02 N°01,SKIKDA",36.8610801696777,6.92475557327271,21,Skikda,40,21,Skikda,4118
21523,21077.0,SOUK-TLETA,36.7551918029785,6.65926122665405,21,Skikda,40,21,Skikda,4118
